timetable_id,stop_id,stop_sequence,stop_name,connected_routes
3435,2448774,1,Senior Center,21/ANDOVER SHUTTLE
3435,2448727,2,Chestnut Court,21/ANDOVER SHUTTLE
3435,4212889,3,Senior Center,21/ANDOVER SHUTTLE
3435,2448787,4,Main Street & Central Street,"21/ANDOVER SHUTTLE, 2/ANDOVER SQUARE VIA SOUTH BROADWAY"
3435,2448793,5,Andover Commons,21/ANDOVER SHUTTLE
3435,2448750,6,Shawsheen Plaza,21/ANDOVER SHUTTLE
3435,2448773,7,Frye Circle,21/ANDOVER SHUTTLE
3435,2448771,8,Doctors Park,21/ANDOVER SHUTTLE
3435,2448829,9,YMCA,21/ANDOVER SHUTTLE
3436,2448829,1,YMCA,21/ANDOVER SHUTTLE
3436,2448875,2,North Andover Mall - Market Basket,"21/ANDOVER SHUTTLE, 3/NORTH ANDOVER/WOODRIDGE, 8/NORTH ANDOVER MALL VIA PARKER STREET, 9/MERRIMACK COLLEGE VIA SOUTH UNION STREET/NORTH ANDOVER MALL"
3436,2448835,3,Doctors Park,"21/ANDOVER SHUTTLE, 8/NORTH ANDOVER MALL VIA PARKER STREET"
3436,2448865,4,Frye Circle,21/ANDOVER SHUTTLE
3436,2448750,5,Shawsheen Plaza,21/ANDOVER SHUTTLE
3436,2448911,6,Andover Commons,21/ANDOVER SHUTTLE
3436,2448891,7,Main Street & Central Street,"21/ANDOVER SHUTTLE, 2/ANDOVER SQUARE VIA SOUTH BROADWAY"
3436,2448774,8,Senior Center,21/ANDOVER SHUTTLE
3518,2579602,1,Plaistow Walmart,13/STATELINE PLAZA/PLAISTOW
3518,2579603,2,Plaistow Market Basket,13/STATELINE PLAZA/PLAISTOW
3518,2448766,3,Stateline Plaza - TJ Maxx,13/STATELINE PLAZA/PLAISTOW
3518,2448867,4,Monument Square,13/STATELINE PLAZA/PLAISTOW
3518,2448845,5,Washington Square Transit Center,"13/STATELINE PLAZA/PLAISTOW, 14/LAWRENCE-HAVERHILL VIA AMAZON/WARD HILL, 15/WESTGATE PLAZA VIA HILLDALE, 16/WESTGATE PLAZA VIA WASHINGTON STREET, 17/SALISBURY BEACH VIA AMESBURY, 18/RIVERSIDE/GROVELAND, 1/LAWRENCE-HAVERHILL VIA THE LOOP, 23/BEACH EXPRESS, 51/Haverhill-Amesbury"
3519,2448845,1,Washington Square Transit Center,"13/STATELINE PLAZA/PLAISTOW, 14/LAWRENCE-HAVERHILL VIA AMAZON/WARD HILL, 15/WESTGATE PLAZA VIA HILLDALE, 16/WESTGATE PLAZA VIA WASHINGTON STREET, 17/SALISBURY BEACH VIA AMESBURY, 18/RIVERSIDE/GROVELAND, 1/LAWRENCE-HAVERHILL VIA THE LOOP, 23/BEACH EXPRESS, 51/Haverhill-Amesbury"
3519,2448842,2,Monument Square,13/STATELINE PLAZA/PLAISTOW
3519,2448825,3,North Avenue & Gas Company Road,13/STATELINE PLAZA/PLAISTOW
3519,2448766,4,Stateline Plaza - TJ Maxx,13/STATELINE PLAZA/PLAISTOW
3519,2579602,5,Plaistow Walmart,13/STATELINE PLAZA/PLAISTOW
3520,2448882,1,McGovern Transportation Center,"10/VILLAGE MALL VIA BROADWAY, 11/LAWRENCE-HAVERHILL-NEWBURYPORT LIMITED, 14/LAWRENCE-HAVERHILL VIA AMAZON/WARD HILL, 1/LAWRENCE-HAVERHILL VIA THE LOOP, 23/BEACH EXPRESS, 24/LAWRENCE-LOWELL, 2/ANDOVER SQUARE VIA SOUTH BROADWAY, 3/NORTH ANDOVER/WOODRIDGE, 4/THE LOOP VIA PROSPECT HILL, 5/MERRIMAC PLAZA/DANA FARBER VIA WATER STREET, 6/HOLY FAMILY HOSPITAL VIA LAWRENCE GENERAL, 7/BEACON STREET/MOUNT VERNON, 8/NORTH ANDOVER MALL VIA PARKER STREET, 9/MERRIMACK COLLEGE VIA SOUTH UNION STREET/NORTH ANDOVER MALL"
3520,4247429,2,Lawrence General Hospital (Main Entrance),6/HOLY FAMILY HOSPITAL VIA LAWRENCE GENERAL
3520,2448930,3,Senior Center,"12/LAWRENCE CROSSTOWN, 4/THE LOOP VIA PROSPECT HILL, 6/HOLY FAMILY HOSPITAL VIA LAWRENCE GENERAL"
3520,2448812,4,Elm Towers,6/HOLY FAMILY HOSPITAL VIA LAWRENCE GENERAL
3520,2448860,5,Rita Hall,6/HOLY FAMILY HOSPITAL VIA LAWRENCE GENERAL
3520,2448737,6,Holy Family Hospital,6/HOLY FAMILY HOSPITAL VIA LAWRENCE GENERAL
3521,2448882,1,McGovern Transportation Center,"10/VILLAGE MALL VIA BROADWAY, 11/LAWRENCE-HAVERHILL-NEWBURYPORT LIMITED, 14/LAWRENCE-HAVERHILL VIA AMAZON/WARD HILL, 1/LAWRENCE-HAVERHILL VIA THE LOOP, 23/BEACH EXPRESS, 24/LAWRENCE-LOWELL, 2/ANDOVER SQUARE VIA SOUTH BROADWAY, 3/NORTH ANDOVER/WOODRIDGE, 4/THE LOOP VIA PROSPECT HILL, 5/MERRIMAC PLAZA/DANA FARBER VIA WATER STREET, 6/HOLY FAMILY HOSPITAL VIA LAWRENCE GENERAL, 7/BEACON STREET/MOUNT VERNON, 8/NORTH ANDOVER MALL VIA PARKER STREET, 9/MERRIMACK COLLEGE VIA SOUTH UNION STREET/NORTH ANDOVER MALL"
3521,4247429,2,Lawrence General Hospital (Main Entrance),6/HOLY FAMILY HOSPITAL VIA LAWRENCE GENERAL
3521,2448930,3,Senior Center,"12/LAWRENCE CROSSTOWN, 4/THE LOOP VIA PROSPECT HILL, 6/HOLY FAMILY HOSPITAL VIA LAWRENCE GENERAL"
3521,2448812,4,Elm Towers,6/HOLY FAMILY HOSPITAL VIA LAWRENCE GENERAL
3521,2448860,5,Rita Hall,6/HOLY FAMILY HOSPITAL VIA LAWRENCE GENERAL
3521,2448737,6,Holy Family Hospital,6/HOLY FAMILY HOSPITAL VIA LAWRENCE GENERAL
3523,2448737,1,Holy Family Hospital,6/HOLY FAMILY HOSPITAL VIA LAWRENCE GENERAL
3523,2448846,2,Rita Hall,6/HOLY FAMILY HOSPITAL VIA LAWRENCE GENERAL
3523,2448792,3,Elm Towers,6/HOLY FAMILY HOSPITAL VIA LAWRENCE GENERAL
3523,4247432,4,Senior Center,6/HOLY FAMILY HOSPITAL VIA LAWRENCE GENERAL
3523,4247429,5,Lawrence General Hospital (Main Entrance),6/HOLY FAMILY HOSPITAL VIA LAWRENCE GENERAL
3523,2448882,6,McGovern Transportation Center,"10/VILLAGE MALL VIA BROADWAY, 11/LAWRENCE-HAVERHILL-NEWBURYPORT LIMITED, 14/LAWRENCE-HAVERHILL VIA AMAZON/WARD HILL, 1/LAWRENCE-HAVERHILL VIA THE LOOP, 23/BEACH EXPRESS, 24/LAWRENCE-LOWELL, 2/ANDOVER SQUARE VIA SOUTH BROADWAY, 3/NORTH ANDOVER/WOODRIDGE, 4/THE LOOP VIA PROSPECT HILL, 5/MERRIMAC PLAZA/DANA FARBER VIA WATER STREET, 6/HOLY FAMILY HOSPITAL VIA LAWRENCE GENERAL, 7/BEACON STREET/MOUNT VERNON, 8/NORTH ANDOVER MALL VIA PARKER STREET, 9/MERRIMACK COLLEGE VIA SOUTH UNION STREET/NORTH ANDOVER MALL"
3524,2448737,1,Holy Family Hospital,6/HOLY FAMILY HOSPITAL VIA LAWRENCE GENERAL
3524,2448846,2,Rita Hall,6/HOLY FAMILY HOSPITAL VIA LAWRENCE GENERAL
3524,2448792,3,Elm Towers,6/HOLY FAMILY HOSPITAL VIA LAWRENCE GENERAL
3524,4247432,4,Senior Center,6/HOLY FAMILY HOSPITAL VIA LAWRENCE GENERAL
3524,4247429,5,Lawrence General Hospital (Main Entrance),6/HOLY FAMILY HOSPITAL VIA LAWRENCE GENERAL
3524,2448882,6,McGovern Transportation Center,"10/VILLAGE MALL VIA BROADWAY, 11/LAWRENCE-HAVERHILL-NEWBURYPORT LIMITED, 14/LAWRENCE-HAVERHILL VIA AMAZON/WARD HILL, 1/LAWRENCE-HAVERHILL VIA THE LOOP, 23/BEACH EXPRESS, 24/LAWRENCE-LOWELL, 2/ANDOVER SQUARE VIA SOUTH BROADWAY, 3/NORTH ANDOVER/WOODRIDGE, 4/THE LOOP VIA PROSPECT HILL, 5/MERRIMAC PLAZA/DANA FARBER VIA WATER STREET, 6/HOLY FAMILY HOSPITAL VIA LAWRENCE GENERAL, 7/BEACON STREET/MOUNT VERNON, 8/NORTH ANDOVER MALL VIA PARKER STREET, 9/MERRIMACK COLLEGE VIA SOUTH UNION STREET/NORTH ANDOVER MALL"
3613,2448764,1,McGovern Transportation Center,"23/BEACH EXPRESS, 2/ANDOVER SQUARE VIA SOUTH BROADWAY, 99/Methuen-Lawrence-Andover to Boston"
3613,2448723,2,S Broadway & Mt Vernon Street,"26/IRS/RAYTHEON (NUKES & TAXES), 2/ANDOVER SQUARE VIA SOUTH BROADWAY, 99/Methuen-Lawrence-Andover to Boston"
3613,2448813,3,Shawsheen Square,2/ANDOVER SQUARE VIA SOUTH BROADWAY
3613,2448891,4,Main Street & Central Street,"21/ANDOVER SHUTTLE, 2/ANDOVER SQUARE VIA SOUTH BROADWAY"
3613,2448849,5,Main Street & School Street,2/ANDOVER SQUARE VIA SOUTH BROADWAY
3614,2448849,1,Main Street & School Street,2/ANDOVER SQUARE VIA SOUTH BROADWAY
3614,2448890,2,Andover Square,2/ANDOVER SQUARE VIA SOUTH BROADWAY
3614,2448724,3,Shawsheen Square,"2/ANDOVER SQUARE VIA SOUTH BROADWAY, 99/Methuen-Lawrence-Andover to Boston"
3614,2448810,4,S Broadway & Mt Vernon Street,"26/IRS/RAYTHEON (NUKES & TAXES), 2/ANDOVER SQUARE VIA SOUTH BROADWAY, 99/Methuen-Lawrence-Andover to Boston"
3614,2448882,5,McGovern Transportation Center,"10/VILLAGE MALL VIA BROADWAY, 11/LAWRENCE-HAVERHILL-NEWBURYPORT LIMITED, 14/LAWRENCE-HAVERHILL VIA AMAZON/WARD HILL, 1/LAWRENCE-HAVERHILL VIA THE LOOP, 23/BEACH EXPRESS, 24/LAWRENCE-LOWELL, 2/ANDOVER SQUARE VIA SOUTH BROADWAY, 3/NORTH ANDOVER/WOODRIDGE, 4/THE LOOP VIA PROSPECT HILL, 5/MERRIMAC PLAZA/DANA FARBER VIA WATER STREET, 6/HOLY FAMILY HOSPITAL VIA LAWRENCE GENERAL, 7/BEACON STREET/MOUNT VERNON, 8/NORTH ANDOVER MALL VIA PARKER STREET, 9/MERRIMACK COLLEGE VIA SOUTH UNION STREET/NORTH ANDOVER MALL"
3615,2448764,1,McGovern Transportation Center,"23/BEACH EXPRESS, 2/ANDOVER SQUARE VIA SOUTH BROADWAY, 99/Methuen-Lawrence-Andover to Boston"
3615,2448723,2,S Broadway & Mt Vernon Street,"26/IRS/RAYTHEON (NUKES & TAXES), 2/ANDOVER SQUARE VIA SOUTH BROADWAY, 99/Methuen-Lawrence-Andover to Boston"
3615,2448813,3,Shawsheen Square,2/ANDOVER SQUARE VIA SOUTH BROADWAY
3615,2448891,4,Main Street & Central Street,"21/ANDOVER SHUTTLE, 2/ANDOVER SQUARE VIA SOUTH BROADWAY"
3615,2448849,5,Main Street & School Street,2/ANDOVER SQUARE VIA SOUTH BROADWAY
3617,2448849,1,Main Street & School Street,2/ANDOVER SQUARE VIA SOUTH BROADWAY
3617,2448890,2,Andover Square,2/ANDOVER SQUARE VIA SOUTH BROADWAY
3617,2448724,3,Shawsheen Square,"2/ANDOVER SQUARE VIA SOUTH BROADWAY, 99/Methuen-Lawrence-Andover to Boston"
3617,2448810,4,S Broadway & Mt Vernon Street,"26/IRS/RAYTHEON (NUKES & TAXES), 2/ANDOVER SQUARE VIA SOUTH BROADWAY, 99/Methuen-Lawrence-Andover to Boston"
3617,2448882,5,McGovern Transportation Center,"10/VILLAGE MALL VIA BROADWAY, 11/LAWRENCE-HAVERHILL-NEWBURYPORT LIMITED, 14/LAWRENCE-HAVERHILL VIA AMAZON/WARD HILL, 1/LAWRENCE-HAVERHILL VIA THE LOOP, 23/BEACH EXPRESS, 24/LAWRENCE-LOWELL, 2/ANDOVER SQUARE VIA SOUTH BROADWAY, 3/NORTH ANDOVER/WOODRIDGE, 4/THE LOOP VIA PROSPECT HILL, 5/MERRIMAC PLAZA/DANA FARBER VIA WATER STREET, 6/HOLY FAMILY HOSPITAL VIA LAWRENCE GENERAL, 7/BEACON STREET/MOUNT VERNON, 8/NORTH ANDOVER MALL VIA PARKER STREET, 9/MERRIMACK COLLEGE VIA SOUTH UNION STREET/NORTH ANDOVER MALL"
3619,2448770,1,Marriott Springhill Suites,7/BEACON STREET/MOUNT VERNON
3619,2448732,2,Courtyard Marriott,7/BEACON STREET/MOUNT VERNON
3619,3475112,3,Andover Street & Beacon Street,7/BEACON STREET/MOUNT VERNON
3619,2448882,4,McGovern Transportation Center,"10/VILLAGE MALL VIA BROADWAY, 11/LAWRENCE-HAVERHILL-NEWBURYPORT LIMITED, 14/LAWRENCE-HAVERHILL VIA AMAZON/WARD HILL, 1/LAWRENCE-HAVERHILL VIA THE LOOP, 23/BEACH EXPRESS, 24/LAWRENCE-LOWELL, 2/ANDOVER SQUARE VIA SOUTH BROADWAY, 3/NORTH ANDOVER/WOODRIDGE, 4/THE LOOP VIA PROSPECT HILL, 5/MERRIMAC PLAZA/DANA FARBER VIA WATER STREET, 6/HOLY FAMILY HOSPITAL VIA LAWRENCE GENERAL, 7/BEACON STREET/MOUNT VERNON, 8/NORTH ANDOVER MALL VIA PARKER STREET, 9/MERRIMACK COLLEGE VIA SOUTH UNION STREET/NORTH ANDOVER MALL"
3620,2448770,1,Marriott Springhill Suites,7/BEACON STREET/MOUNT VERNON
3620,2448732,2,Courtyard Marriott,7/BEACON STREET/MOUNT VERNON
3620,3475112,3,Andover Street & Beacon Street,7/BEACON STREET/MOUNT VERNON
3620,2448882,4,McGovern Transportation Center,"10/VILLAGE MALL VIA BROADWAY, 11/LAWRENCE-HAVERHILL-NEWBURYPORT LIMITED, 14/LAWRENCE-HAVERHILL VIA AMAZON/WARD HILL, 1/LAWRENCE-HAVERHILL VIA THE LOOP, 23/BEACH EXPRESS, 24/LAWRENCE-LOWELL, 2/ANDOVER SQUARE VIA SOUTH BROADWAY, 3/NORTH ANDOVER/WOODRIDGE, 4/THE LOOP VIA PROSPECT HILL, 5/MERRIMAC PLAZA/DANA FARBER VIA WATER STREET, 6/HOLY FAMILY HOSPITAL VIA LAWRENCE GENERAL, 7/BEACON STREET/MOUNT VERNON, 8/NORTH ANDOVER MALL VIA PARKER STREET, 9/MERRIMACK COLLEGE VIA SOUTH UNION STREET/NORTH ANDOVER MALL"
3622,2448882,1,McGovern Transportation Center,"10/VILLAGE MALL VIA BROADWAY, 11/LAWRENCE-HAVERHILL-NEWBURYPORT LIMITED, 14/LAWRENCE-HAVERHILL VIA AMAZON/WARD HILL, 1/LAWRENCE-HAVERHILL VIA THE LOOP, 23/BEACH EXPRESS, 24/LAWRENCE-LOWELL, 2/ANDOVER SQUARE VIA SOUTH BROADWAY, 3/NORTH ANDOVER/WOODRIDGE, 4/THE LOOP VIA PROSPECT HILL, 5/MERRIMAC PLAZA/DANA FARBER VIA WATER STREET, 6/HOLY FAMILY HOSPITAL VIA LAWRENCE GENERAL, 7/BEACON STREET/MOUNT VERNON, 8/NORTH ANDOVER MALL VIA PARKER STREET, 9/MERRIMACK COLLEGE VIA SOUTH UNION STREET/NORTH ANDOVER MALL"
3622,2448827,2,Andover Street & Beacon Street,"27/BEACON STREET SPECIAL, 7/BEACON STREET/MOUNT VERNON"
3622,2448721,3,Lawrence Vocational School (VOC),7/BEACON STREET/MOUNT VERNON
3622,2448770,4,Marriott Springhill Suites,7/BEACON STREET/MOUNT VERNON
3624,2448882,1,McGovern Transportation Center,"10/VILLAGE MALL VIA BROADWAY, 11/LAWRENCE-HAVERHILL-NEWBURYPORT LIMITED, 14/LAWRENCE-HAVERHILL VIA AMAZON/WARD HILL, 1/LAWRENCE-HAVERHILL VIA THE LOOP, 23/BEACH EXPRESS, 24/LAWRENCE-LOWELL, 2/ANDOVER SQUARE VIA SOUTH BROADWAY, 3/NORTH ANDOVER/WOODRIDGE, 4/THE LOOP VIA PROSPECT HILL, 5/MERRIMAC PLAZA/DANA FARBER VIA WATER STREET, 6/HOLY FAMILY HOSPITAL VIA LAWRENCE GENERAL, 7/BEACON STREET/MOUNT VERNON, 8/NORTH ANDOVER MALL VIA PARKER STREET, 9/MERRIMACK COLLEGE VIA SOUTH UNION STREET/NORTH ANDOVER MALL"
3624,2448827,2,Andover Street & Beacon Street,"27/BEACON STREET SPECIAL, 7/BEACON STREET/MOUNT VERNON"
3624,2448721,3,Lawrence Vocational School (VOC),7/BEACON STREET/MOUNT VERNON
3624,2448770,4,Marriott Springhill Suites,7/BEACON STREET/MOUNT VERNON
3741,2448845,1,Washington Square Transit Center,"13/STATELINE PLAZA/PLAISTOW, 14/LAWRENCE-HAVERHILL VIA AMAZON/WARD HILL, 15/WESTGATE PLAZA VIA HILLDALE, 16/WESTGATE PLAZA VIA WASHINGTON STREET, 17/SALISBURY BEACH VIA AMESBURY, 18/RIVERSIDE/GROVELAND, 1/LAWRENCE-HAVERHILL VIA THE LOOP, 23/BEACH EXPRESS, 51/Haverhill-Amesbury"
3741,2448809,2,River Street & Lowell Ave,"11/LAWRENCE-HAVERHILL-NEWBURYPORT LIMITED, 1/LAWRENCE-HAVERHILL VIA THE LOOP"
3741,4212790,3,The Loop,"1/LAWRENCE-HAVERHILL VIA THE LOOP, 4/THE LOOP VIA PROSPECT HILL"
3741,2448751,4,Methuen Plaza - Walmart,"1/LAWRENCE-HAVERHILL VIA THE LOOP, 4/THE LOOP VIA PROSPECT HILL"
3741,2448804,5,Target Plaza,"1/LAWRENCE-HAVERHILL VIA THE LOOP, 4/THE LOOP VIA PROSPECT HILL"
3741,4247392,6,Jackson and Swan Street,1/LAWRENCE-HAVERHILL VIA THE LOOP
3741,2448882,7,McGovern Transportation Center,"10/VILLAGE MALL VIA BROADWAY, 11/LAWRENCE-HAVERHILL-NEWBURYPORT LIMITED, 14/LAWRENCE-HAVERHILL VIA AMAZON/WARD HILL, 1/LAWRENCE-HAVERHILL VIA THE LOOP, 23/BEACH EXPRESS, 24/LAWRENCE-LOWELL, 2/ANDOVER SQUARE VIA SOUTH BROADWAY, 3/NORTH ANDOVER/WOODRIDGE, 4/THE LOOP VIA PROSPECT HILL, 5/MERRIMAC PLAZA/DANA FARBER VIA WATER STREET, 6/HOLY FAMILY HOSPITAL VIA LAWRENCE GENERAL, 7/BEACON STREET/MOUNT VERNON, 8/NORTH ANDOVER MALL VIA PARKER STREET, 9/MERRIMACK COLLEGE VIA SOUTH UNION STREET/NORTH ANDOVER MALL"
3742,2448882,1,McGovern Transportation Center,"10/VILLAGE MALL VIA BROADWAY, 11/LAWRENCE-HAVERHILL-NEWBURYPORT LIMITED, 14/LAWRENCE-HAVERHILL VIA AMAZON/WARD HILL, 1/LAWRENCE-HAVERHILL VIA THE LOOP, 23/BEACH EXPRESS, 24/LAWRENCE-LOWELL, 2/ANDOVER SQUARE VIA SOUTH BROADWAY, 3/NORTH ANDOVER/WOODRIDGE, 4/THE LOOP VIA PROSPECT HILL, 5/MERRIMAC PLAZA/DANA FARBER VIA WATER STREET, 6/HOLY FAMILY HOSPITAL VIA LAWRENCE GENERAL, 7/BEACON STREET/MOUNT VERNON, 8/NORTH ANDOVER MALL VIA PARKER STREET, 9/MERRIMACK COLLEGE VIA SOUTH UNION STREET/NORTH ANDOVER MALL"
3742,2448765,2,NECC Lawrence Campus,"10/VILLAGE MALL VIA BROADWAY, 1/LAWRENCE-HAVERHILL VIA THE LOOP, 56/NECC Express"
3742,4247391,3,Jackson and Swan,1/LAWRENCE-HAVERHILL VIA THE LOOP
3742,4212790,4,The Loop,"1/LAWRENCE-HAVERHILL VIA THE LOOP, 4/THE LOOP VIA PROSPECT HILL"
3742,2448751,5,Methuen Plaza - Walmart,"1/LAWRENCE-HAVERHILL VIA THE LOOP, 4/THE LOOP VIA PROSPECT HILL"
3742,2448804,6,Target Plaza,"1/LAWRENCE-HAVERHILL VIA THE LOOP, 4/THE LOOP VIA PROSPECT HILL"
3742,2448782,7,River Street & Lowell Ave,"11/LAWRENCE-HAVERHILL-NEWBURYPORT LIMITED, 1/LAWRENCE-HAVERHILL VIA THE LOOP"
3742,2448845,8,Washington Square Transit Center,"13/STATELINE PLAZA/PLAISTOW, 14/LAWRENCE-HAVERHILL VIA AMAZON/WARD HILL, 15/WESTGATE PLAZA VIA HILLDALE, 16/WESTGATE PLAZA VIA WASHINGTON STREET, 17/SALISBURY BEACH VIA AMESBURY, 18/RIVERSIDE/GROVELAND, 1/LAWRENCE-HAVERHILL VIA THE LOOP, 23/BEACH EXPRESS, 51/Haverhill-Amesbury"
3743,2448845,1,Washington Square Transit Center,"13/STATELINE PLAZA/PLAISTOW, 14/LAWRENCE-HAVERHILL VIA AMAZON/WARD HILL, 15/WESTGATE PLAZA VIA HILLDALE, 16/WESTGATE PLAZA VIA WASHINGTON STREET, 17/SALISBURY BEACH VIA AMESBURY, 18/RIVERSIDE/GROVELAND, 1/LAWRENCE-HAVERHILL VIA THE LOOP, 23/BEACH EXPRESS, 51/Haverhill-Amesbury"
3743,2448809,2,River Street & Lowell Ave,"11/LAWRENCE-HAVERHILL-NEWBURYPORT LIMITED, 1/LAWRENCE-HAVERHILL VIA THE LOOP"
3743,4212790,3,The Loop,"1/LAWRENCE-HAVERHILL VIA THE LOOP, 4/THE LOOP VIA PROSPECT HILL"
3743,2448751,4,Methuen Plaza - Walmart,"1/LAWRENCE-HAVERHILL VIA THE LOOP, 4/THE LOOP VIA PROSPECT HILL"
3743,2448804,5,Target Plaza,"1/LAWRENCE-HAVERHILL VIA THE LOOP, 4/THE LOOP VIA PROSPECT HILL"
3743,4247392,6,Jackson and Swan Street,1/LAWRENCE-HAVERHILL VIA THE LOOP
3743,2448882,7,McGovern Transportation Center,"10/VILLAGE MALL VIA BROADWAY, 11/LAWRENCE-HAVERHILL-NEWBURYPORT LIMITED, 14/LAWRENCE-HAVERHILL VIA AMAZON/WARD HILL, 1/LAWRENCE-HAVERHILL VIA THE LOOP, 23/BEACH EXPRESS, 24/LAWRENCE-LOWELL, 2/ANDOVER SQUARE VIA SOUTH BROADWAY, 3/NORTH ANDOVER/WOODRIDGE, 4/THE LOOP VIA PROSPECT HILL, 5/MERRIMAC PLAZA/DANA FARBER VIA WATER STREET, 6/HOLY FAMILY HOSPITAL VIA LAWRENCE GENERAL, 7/BEACON STREET/MOUNT VERNON, 8/NORTH ANDOVER MALL VIA PARKER STREET, 9/MERRIMACK COLLEGE VIA SOUTH UNION STREET/NORTH ANDOVER MALL"
3744,2448882,1,McGovern Transportation Center,"10/VILLAGE MALL VIA BROADWAY, 11/LAWRENCE-HAVERHILL-NEWBURYPORT LIMITED, 14/LAWRENCE-HAVERHILL VIA AMAZON/WARD HILL, 1/LAWRENCE-HAVERHILL VIA THE LOOP, 23/BEACH EXPRESS, 24/LAWRENCE-LOWELL, 2/ANDOVER SQUARE VIA SOUTH BROADWAY, 3/NORTH ANDOVER/WOODRIDGE, 4/THE LOOP VIA PROSPECT HILL, 5/MERRIMAC PLAZA/DANA FARBER VIA WATER STREET, 6/HOLY FAMILY HOSPITAL VIA LAWRENCE GENERAL, 7/BEACON STREET/MOUNT VERNON, 8/NORTH ANDOVER MALL VIA PARKER STREET, 9/MERRIMACK COLLEGE VIA SOUTH UNION STREET/NORTH ANDOVER MALL"
3744,2448765,2,NECC Lawrence Campus,"10/VILLAGE MALL VIA BROADWAY, 1/LAWRENCE-HAVERHILL VIA THE LOOP, 56/NECC Express"
3744,4247391,3,Jackson and Swan,1/LAWRENCE-HAVERHILL VIA THE LOOP
3744,4212790,4,The Loop,"1/LAWRENCE-HAVERHILL VIA THE LOOP, 4/THE LOOP VIA PROSPECT HILL"
3744,2448751,5,Methuen Plaza - Walmart,"1/LAWRENCE-HAVERHILL VIA THE LOOP, 4/THE LOOP VIA PROSPECT HILL"
3744,2448804,6,Target Plaza,"1/LAWRENCE-HAVERHILL VIA THE LOOP, 4/THE LOOP VIA PROSPECT HILL"
3744,2448782,7,River Street & Lowell Ave,"11/LAWRENCE-HAVERHILL-NEWBURYPORT LIMITED, 1/LAWRENCE-HAVERHILL VIA THE LOOP"
3744,2448845,8,Washington Square Transit Center,"13/STATELINE PLAZA/PLAISTOW, 14/LAWRENCE-HAVERHILL VIA AMAZON/WARD HILL, 15/WESTGATE PLAZA VIA HILLDALE, 16/WESTGATE PLAZA VIA WASHINGTON STREET, 17/SALISBURY BEACH VIA AMESBURY, 18/RIVERSIDE/GROVELAND, 1/LAWRENCE-HAVERHILL VIA THE LOOP, 23/BEACH EXPRESS, 51/Haverhill-Amesbury"
3747,2579602,1,Plaistow Walmart,13/STATELINE PLAZA/PLAISTOW
3747,2579603,2,Plaistow Market Basket,13/STATELINE PLAZA/PLAISTOW
3747,2448766,3,Stateline Plaza - TJ Maxx,13/STATELINE PLAZA/PLAISTOW
3747,2448867,4,Monument Square,13/STATELINE PLAZA/PLAISTOW
3747,2448845,5,Washington Square Transit Center,"13/STATELINE PLAZA/PLAISTOW, 14/LAWRENCE-HAVERHILL VIA AMAZON/WARD HILL, 15/WESTGATE PLAZA VIA HILLDALE, 16/WESTGATE PLAZA VIA WASHINGTON STREET, 17/SALISBURY BEACH VIA AMESBURY, 18/RIVERSIDE/GROVELAND, 1/LAWRENCE-HAVERHILL VIA THE LOOP, 23/BEACH EXPRESS, 51/Haverhill-Amesbury"
3748,2448845,1,Washington Square Transit Center,"13/STATELINE PLAZA/PLAISTOW, 14/LAWRENCE-HAVERHILL VIA AMAZON/WARD HILL, 15/WESTGATE PLAZA VIA HILLDALE, 16/WESTGATE PLAZA VIA WASHINGTON STREET, 17/SALISBURY BEACH VIA AMESBURY, 18/RIVERSIDE/GROVELAND, 1/LAWRENCE-HAVERHILL VIA THE LOOP, 23/BEACH EXPRESS, 51/Haverhill-Amesbury"
3748,2448842,2,Monument Square,13/STATELINE PLAZA/PLAISTOW
3748,2448825,3,North Avenue & Gas Company Road,13/STATELINE PLAZA/PLAISTOW
3748,2448766,4,Stateline Plaza - TJ Maxx,13/STATELINE PLAZA/PLAISTOW
3748,2579602,5,Plaistow Walmart,13/STATELINE PLAZA/PLAISTOW
3751,2448882,1,McGovern Transportation Center,"10/VILLAGE MALL VIA BROADWAY, 11/LAWRENCE-HAVERHILL-NEWBURYPORT LIMITED, 14/LAWRENCE-HAVERHILL VIA AMAZON/WARD HILL, 1/LAWRENCE-HAVERHILL VIA THE LOOP, 23/BEACH EXPRESS, 24/LAWRENCE-LOWELL, 2/ANDOVER SQUARE VIA SOUTH BROADWAY, 3/NORTH ANDOVER/WOODRIDGE, 4/THE LOOP VIA PROSPECT HILL, 5/MERRIMAC PLAZA/DANA FARBER VIA WATER STREET, 6/HOLY FAMILY HOSPITAL VIA LAWRENCE GENERAL, 7/BEACON STREET/MOUNT VERNON, 8/NORTH ANDOVER MALL VIA PARKER STREET, 9/MERRIMACK COLLEGE VIA SOUTH UNION STREET/NORTH ANDOVER MALL"
3751,4244378,2,North Andover Senior Center,14/LAWRENCE-HAVERHILL VIA AMAZON/WARD HILL
3751,4244431,3,Amazon Distribution Center,14/LAWRENCE-HAVERHILL VIA AMAZON/WARD HILL
3751,2594239,4,Ward Hill Avenue - Cedars Warehouse,14/LAWRENCE-HAVERHILL VIA AMAZON/WARD HILL
3751,4247489,5,BJ's ,14/LAWRENCE-HAVERHILL VIA AMAZON/WARD HILL
3751,2448845,6,Washington Square Transit Center,"13/STATELINE PLAZA/PLAISTOW, 14/LAWRENCE-HAVERHILL VIA AMAZON/WARD HILL, 15/WESTGATE PLAZA VIA HILLDALE, 16/WESTGATE PLAZA VIA WASHINGTON STREET, 17/SALISBURY BEACH VIA AMESBURY, 18/RIVERSIDE/GROVELAND, 1/LAWRENCE-HAVERHILL VIA THE LOOP, 23/BEACH EXPRESS, 51/Haverhill-Amesbury"
3752,2448845,1,Washington Square Transit Center,"13/STATELINE PLAZA/PLAISTOW, 14/LAWRENCE-HAVERHILL VIA AMAZON/WARD HILL, 15/WESTGATE PLAZA VIA HILLDALE, 16/WESTGATE PLAZA VIA WASHINGTON STREET, 17/SALISBURY BEACH VIA AMESBURY, 18/RIVERSIDE/GROVELAND, 1/LAWRENCE-HAVERHILL VIA THE LOOP, 23/BEACH EXPRESS, 51/Haverhill-Amesbury"
3752,2448796,2,Ward Hill Industrial Park East,14/LAWRENCE-HAVERHILL VIA AMAZON/WARD HILL
3752,4247489,3,BJ's ,14/LAWRENCE-HAVERHILL VIA AMAZON/WARD HILL
3752,4244431,4,Amazon Distribution Center,14/LAWRENCE-HAVERHILL VIA AMAZON/WARD HILL
3752,4244374,5,North Andover Senior Center,14/LAWRENCE-HAVERHILL VIA AMAZON/WARD HILL
3752,2448882,6,McGovern Transportation Center,"10/VILLAGE MALL VIA BROADWAY, 11/LAWRENCE-HAVERHILL-NEWBURYPORT LIMITED, 14/LAWRENCE-HAVERHILL VIA AMAZON/WARD HILL, 1/LAWRENCE-HAVERHILL VIA THE LOOP, 23/BEACH EXPRESS, 24/LAWRENCE-LOWELL, 2/ANDOVER SQUARE VIA SOUTH BROADWAY, 3/NORTH ANDOVER/WOODRIDGE, 4/THE LOOP VIA PROSPECT HILL, 5/MERRIMAC PLAZA/DANA FARBER VIA WATER STREET, 6/HOLY FAMILY HOSPITAL VIA LAWRENCE GENERAL, 7/BEACON STREET/MOUNT VERNON, 8/NORTH ANDOVER MALL VIA PARKER STREET, 9/MERRIMACK COLLEGE VIA SOUTH UNION STREET/NORTH ANDOVER MALL"
3753,2448882,1,McGovern Transportation Center,"10/VILLAGE MALL VIA BROADWAY, 11/LAWRENCE-HAVERHILL-NEWBURYPORT LIMITED, 14/LAWRENCE-HAVERHILL VIA AMAZON/WARD HILL, 1/LAWRENCE-HAVERHILL VIA THE LOOP, 23/BEACH EXPRESS, 24/LAWRENCE-LOWELL, 2/ANDOVER SQUARE VIA SOUTH BROADWAY, 3/NORTH ANDOVER/WOODRIDGE, 4/THE LOOP VIA PROSPECT HILL, 5/MERRIMAC PLAZA/DANA FARBER VIA WATER STREET, 6/HOLY FAMILY HOSPITAL VIA LAWRENCE GENERAL, 7/BEACON STREET/MOUNT VERNON, 8/NORTH ANDOVER MALL VIA PARKER STREET, 9/MERRIMACK COLLEGE VIA SOUTH UNION STREET/NORTH ANDOVER MALL"
3753,4244378,2,North Andover Senior Center,14/LAWRENCE-HAVERHILL VIA AMAZON/WARD HILL
3753,4244431,3,Amazon Distribution Center,14/LAWRENCE-HAVERHILL VIA AMAZON/WARD HILL
3753,2594239,4,Ward Hill Avenue - Cedars Warehouse,14/LAWRENCE-HAVERHILL VIA AMAZON/WARD HILL
3753,4247489,5,BJ's ,14/LAWRENCE-HAVERHILL VIA AMAZON/WARD HILL
3753,2448845,6,Washington Square Transit Center,"13/STATELINE PLAZA/PLAISTOW, 14/LAWRENCE-HAVERHILL VIA AMAZON/WARD HILL, 15/WESTGATE PLAZA VIA HILLDALE, 16/WESTGATE PLAZA VIA WASHINGTON STREET, 17/SALISBURY BEACH VIA AMESBURY, 18/RIVERSIDE/GROVELAND, 1/LAWRENCE-HAVERHILL VIA THE LOOP, 23/BEACH EXPRESS, 51/Haverhill-Amesbury"
3754,2448845,1,Washington Square Transit Center,"13/STATELINE PLAZA/PLAISTOW, 14/LAWRENCE-HAVERHILL VIA AMAZON/WARD HILL, 15/WESTGATE PLAZA VIA HILLDALE, 16/WESTGATE PLAZA VIA WASHINGTON STREET, 17/SALISBURY BEACH VIA AMESBURY, 18/RIVERSIDE/GROVELAND, 1/LAWRENCE-HAVERHILL VIA THE LOOP, 23/BEACH EXPRESS, 51/Haverhill-Amesbury"
3754,2448796,2,Ward Hill Industrial Park East,14/LAWRENCE-HAVERHILL VIA AMAZON/WARD HILL
3754,4247489,3,BJ's ,14/LAWRENCE-HAVERHILL VIA AMAZON/WARD HILL
3754,4244431,4,Amazon Distribution Center,14/LAWRENCE-HAVERHILL VIA AMAZON/WARD HILL
3754,4244374,5,North Andover Senior Center,14/LAWRENCE-HAVERHILL VIA AMAZON/WARD HILL
3754,2448882,6,McGovern Transportation Center,"10/VILLAGE MALL VIA BROADWAY, 11/LAWRENCE-HAVERHILL-NEWBURYPORT LIMITED, 14/LAWRENCE-HAVERHILL VIA AMAZON/WARD HILL, 1/LAWRENCE-HAVERHILL VIA THE LOOP, 23/BEACH EXPRESS, 24/LAWRENCE-LOWELL, 2/ANDOVER SQUARE VIA SOUTH BROADWAY, 3/NORTH ANDOVER/WOODRIDGE, 4/THE LOOP VIA PROSPECT HILL, 5/MERRIMAC PLAZA/DANA FARBER VIA WATER STREET, 6/HOLY FAMILY HOSPITAL VIA LAWRENCE GENERAL, 7/BEACON STREET/MOUNT VERNON, 8/NORTH ANDOVER MALL VIA PARKER STREET, 9/MERRIMACK COLLEGE VIA SOUTH UNION STREET/NORTH ANDOVER MALL"
3757,2454604,1,Westgate Plaza - Entrance,"15/WESTGATE PLAZA VIA HILLDALE, 16/WESTGATE PLAZA VIA WASHINGTON STREET"
3757,2448918,2,"Haverhill Commons, Target","15/WESTGATE PLAZA VIA HILLDALE, 16/WESTGATE PLAZA VIA WASHINGTON STREET"
3757,2448730,3,Hilldale Avenue & Monument Street,15/WESTGATE PLAZA VIA HILLDALE
3757,2448845,4,Washington Square Transit Center,"13/STATELINE PLAZA/PLAISTOW, 14/LAWRENCE-HAVERHILL VIA AMAZON/WARD HILL, 15/WESTGATE PLAZA VIA HILLDALE, 16/WESTGATE PLAZA VIA WASHINGTON STREET, 17/SALISBURY BEACH VIA AMESBURY, 18/RIVERSIDE/GROVELAND, 1/LAWRENCE-HAVERHILL VIA THE LOOP, 23/BEACH EXPRESS, 51/Haverhill-Amesbury"
3758,2454604,1,Westgate Plaza - Entrance,"15/WESTGATE PLAZA VIA HILLDALE, 16/WESTGATE PLAZA VIA WASHINGTON STREET"
3758,2448918,2,"Haverhill Commons, Target","15/WESTGATE PLAZA VIA HILLDALE, 16/WESTGATE PLAZA VIA WASHINGTON STREET"
3758,2448730,3,Hilldale Avenue & Monument Street,15/WESTGATE PLAZA VIA HILLDALE
3758,2448845,4,Washington Square Transit Center,"13/STATELINE PLAZA/PLAISTOW, 14/LAWRENCE-HAVERHILL VIA AMAZON/WARD HILL, 15/WESTGATE PLAZA VIA HILLDALE, 16/WESTGATE PLAZA VIA WASHINGTON STREET, 17/SALISBURY BEACH VIA AMESBURY, 18/RIVERSIDE/GROVELAND, 1/LAWRENCE-HAVERHILL VIA THE LOOP, 23/BEACH EXPRESS, 51/Haverhill-Amesbury"
3760,2448845,1,Washington Square Transit Center,"13/STATELINE PLAZA/PLAISTOW, 14/LAWRENCE-HAVERHILL VIA AMAZON/WARD HILL, 15/WESTGATE PLAZA VIA HILLDALE, 16/WESTGATE PLAZA VIA WASHINGTON STREET, 17/SALISBURY BEACH VIA AMESBURY, 18/RIVERSIDE/GROVELAND, 1/LAWRENCE-HAVERHILL VIA THE LOOP, 23/BEACH EXPRESS, 51/Haverhill-Amesbury"
3760,2613752,2,Winter Street & Lafayette Square,15/WESTGATE PLAZA VIA HILLDALE
3760,2448748,3,Hilldale Avenue & Monument Street,15/WESTGATE PLAZA VIA HILLDALE
3760,2448918,4,"Haverhill Commons, Target","15/WESTGATE PLAZA VIA HILLDALE, 16/WESTGATE PLAZA VIA WASHINGTON STREET"
3760,2454604,5,Westgate Plaza - Entrance,"15/WESTGATE PLAZA VIA HILLDALE, 16/WESTGATE PLAZA VIA WASHINGTON STREET"
3761,2448845,1,Washington Square Transit Center,"13/STATELINE PLAZA/PLAISTOW, 14/LAWRENCE-HAVERHILL VIA AMAZON/WARD HILL, 15/WESTGATE PLAZA VIA HILLDALE, 16/WESTGATE PLAZA VIA WASHINGTON STREET, 17/SALISBURY BEACH VIA AMESBURY, 18/RIVERSIDE/GROVELAND, 1/LAWRENCE-HAVERHILL VIA THE LOOP, 23/BEACH EXPRESS, 51/Haverhill-Amesbury"
3761,2613752,2,Winter Street & Lafayette Square,15/WESTGATE PLAZA VIA HILLDALE
3761,2448748,3,Hilldale Avenue & Monument Street,15/WESTGATE PLAZA VIA HILLDALE
3761,2448918,4,"Haverhill Commons, Target","15/WESTGATE PLAZA VIA HILLDALE, 16/WESTGATE PLAZA VIA WASHINGTON STREET"
3761,2454604,5,Westgate Plaza - Entrance,"15/WESTGATE PLAZA VIA HILLDALE, 16/WESTGATE PLAZA VIA WASHINGTON STREET"
3763,2454604,1,Westgate Plaza - Entrance,"15/WESTGATE PLAZA VIA HILLDALE, 16/WESTGATE PLAZA VIA WASHINGTON STREET"
3763,4212168,2,Washington St Julian Steel Apartments,16/WESTGATE PLAZA VIA WASHINGTON STREET
3763,2448807,3,Currier Square,16/WESTGATE PLAZA VIA WASHINGTON STREET
3763,2448845,4,Washington Square Transit Center,"13/STATELINE PLAZA/PLAISTOW, 14/LAWRENCE-HAVERHILL VIA AMAZON/WARD HILL, 15/WESTGATE PLAZA VIA HILLDALE, 16/WESTGATE PLAZA VIA WASHINGTON STREET, 17/SALISBURY BEACH VIA AMESBURY, 18/RIVERSIDE/GROVELAND, 1/LAWRENCE-HAVERHILL VIA THE LOOP, 23/BEACH EXPRESS, 51/Haverhill-Amesbury"
3764,2454604,1,Westgate Plaza - Entrance,"15/WESTGATE PLAZA VIA HILLDALE, 16/WESTGATE PLAZA VIA WASHINGTON STREET"
3764,4212168,2,Washington St Julian Steel Apartments,16/WESTGATE PLAZA VIA WASHINGTON STREET
3764,2448807,3,Currier Square,16/WESTGATE PLAZA VIA WASHINGTON STREET
3764,2448845,4,Washington Square Transit Center,"13/STATELINE PLAZA/PLAISTOW, 14/LAWRENCE-HAVERHILL VIA AMAZON/WARD HILL, 15/WESTGATE PLAZA VIA HILLDALE, 16/WESTGATE PLAZA VIA WASHINGTON STREET, 17/SALISBURY BEACH VIA AMESBURY, 18/RIVERSIDE/GROVELAND, 1/LAWRENCE-HAVERHILL VIA THE LOOP, 23/BEACH EXPRESS, 51/Haverhill-Amesbury"
3767,2448845,1,Washington Square Transit Center,"13/STATELINE PLAZA/PLAISTOW, 14/LAWRENCE-HAVERHILL VIA AMAZON/WARD HILL, 15/WESTGATE PLAZA VIA HILLDALE, 16/WESTGATE PLAZA VIA WASHINGTON STREET, 17/SALISBURY BEACH VIA AMESBURY, 18/RIVERSIDE/GROVELAND, 1/LAWRENCE-HAVERHILL VIA THE LOOP, 23/BEACH EXPRESS, 51/Haverhill-Amesbury"
3767,2448789,2,Currier Square,16/WESTGATE PLAZA VIA WASHINGTON STREET
3767,2448726,3,Washington Street & Lowell Ave,16/WESTGATE PLAZA VIA WASHINGTON STREET
3767,2454604,4,Westgate Plaza - Entrance,"15/WESTGATE PLAZA VIA HILLDALE, 16/WESTGATE PLAZA VIA WASHINGTON STREET"
3768,2448845,1,Washington Square Transit Center,"13/STATELINE PLAZA/PLAISTOW, 14/LAWRENCE-HAVERHILL VIA AMAZON/WARD HILL, 15/WESTGATE PLAZA VIA HILLDALE, 16/WESTGATE PLAZA VIA WASHINGTON STREET, 17/SALISBURY BEACH VIA AMESBURY, 18/RIVERSIDE/GROVELAND, 1/LAWRENCE-HAVERHILL VIA THE LOOP, 23/BEACH EXPRESS, 51/Haverhill-Amesbury"
3768,2448789,2,Currier Square,16/WESTGATE PLAZA VIA WASHINGTON STREET
3768,2448726,3,Washington Street & Lowell Ave,16/WESTGATE PLAZA VIA WASHINGTON STREET
3768,2454604,4,Westgate Plaza - Entrance,"15/WESTGATE PLAZA VIA HILLDALE, 16/WESTGATE PLAZA VIA WASHINGTON STREET"
3769,3880688,1,Groveland Housing,18/RIVERSIDE/GROVELAND
3769,2448738,2,Rivers Edge Plaza - Building 19,"18/RIVERSIDE/GROVELAND, 22/BUTTONWOODS EXPRESS"
3769,2448872,3,Kennedy Circle,18/RIVERSIDE/GROVELAND
3769,2448885,4,Merrimack Valley Hospital - Main Entrance,18/RIVERSIDE/GROVELAND
3769,2448845,5,Washington Square Transit Center,"13/STATELINE PLAZA/PLAISTOW, 14/LAWRENCE-HAVERHILL VIA AMAZON/WARD HILL, 15/WESTGATE PLAZA VIA HILLDALE, 16/WESTGATE PLAZA VIA WASHINGTON STREET, 17/SALISBURY BEACH VIA AMESBURY, 18/RIVERSIDE/GROVELAND, 1/LAWRENCE-HAVERHILL VIA THE LOOP, 23/BEACH EXPRESS, 51/Haverhill-Amesbury"
3770,3880688,1,Groveland Housing,18/RIVERSIDE/GROVELAND
3770,2448738,2,Rivers Edge Plaza - Building 19,"18/RIVERSIDE/GROVELAND, 22/BUTTONWOODS EXPRESS"
3770,2448872,3,Kennedy Circle,18/RIVERSIDE/GROVELAND
3770,2448885,4,Merrimack Valley Hospital - Main Entrance,18/RIVERSIDE/GROVELAND
3770,2448845,5,Washington Square Transit Center,"13/STATELINE PLAZA/PLAISTOW, 14/LAWRENCE-HAVERHILL VIA AMAZON/WARD HILL, 15/WESTGATE PLAZA VIA HILLDALE, 16/WESTGATE PLAZA VIA WASHINGTON STREET, 17/SALISBURY BEACH VIA AMESBURY, 18/RIVERSIDE/GROVELAND, 1/LAWRENCE-HAVERHILL VIA THE LOOP, 23/BEACH EXPRESS, 51/Haverhill-Amesbury"
3772,2448845,1,Washington Square Transit Center,"13/STATELINE PLAZA/PLAISTOW, 14/LAWRENCE-HAVERHILL VIA AMAZON/WARD HILL, 15/WESTGATE PLAZA VIA HILLDALE, 16/WESTGATE PLAZA VIA WASHINGTON STREET, 17/SALISBURY BEACH VIA AMESBURY, 18/RIVERSIDE/GROVELAND, 1/LAWRENCE-HAVERHILL VIA THE LOOP, 23/BEACH EXPRESS, 51/Haverhill-Amesbury"
3772,2448885,2,Merrimack Valley Hospital - Main Entrance,18/RIVERSIDE/GROVELAND
3772,2448917,3,Kennedy Circle,18/RIVERSIDE/GROVELAND
3772,2448738,4,Rivers Edge Plaza - Building 19,"18/RIVERSIDE/GROVELAND, 22/BUTTONWOODS EXPRESS"
3772,3880688,5,Groveland Housing,18/RIVERSIDE/GROVELAND
3773,2448845,1,Washington Square Transit Center,"13/STATELINE PLAZA/PLAISTOW, 14/LAWRENCE-HAVERHILL VIA AMAZON/WARD HILL, 15/WESTGATE PLAZA VIA HILLDALE, 16/WESTGATE PLAZA VIA WASHINGTON STREET, 17/SALISBURY BEACH VIA AMESBURY, 18/RIVERSIDE/GROVELAND, 1/LAWRENCE-HAVERHILL VIA THE LOOP, 23/BEACH EXPRESS, 51/Haverhill-Amesbury"
3773,2448885,2,Merrimack Valley Hospital - Main Entrance,18/RIVERSIDE/GROVELAND
3773,2448917,3,Kennedy Circle,18/RIVERSIDE/GROVELAND
3773,2448738,4,Rivers Edge Plaza - Building 19,"18/RIVERSIDE/GROVELAND, 22/BUTTONWOODS EXPRESS"
3773,3880688,5,Groveland Housing,18/RIVERSIDE/GROVELAND
3775,2448875,1,North Andover Mall - Market Basket,"21/ANDOVER SHUTTLE, 3/NORTH ANDOVER/WOODRIDGE, 8/NORTH ANDOVER MALL VIA PARKER STREET, 9/MERRIMACK COLLEGE VIA SOUTH UNION STREET/NORTH ANDOVER MALL"
3775,4247397,2,Woodridge Housing,3/NORTH ANDOVER/WOODRIDGE
3775,2448876,3,Chickering Road & Peters Street,3/NORTH ANDOVER/WOODRIDGE
3775,2448884,4,Heritage Green Condominiums,3/NORTH ANDOVER/WOODRIDGE
3775,2448908,5,Main Street & Sutton Street,3/NORTH ANDOVER/WOODRIDGE
3775,2448882,6,McGovern Transportation Center,"10/VILLAGE MALL VIA BROADWAY, 11/LAWRENCE-HAVERHILL-NEWBURYPORT LIMITED, 14/LAWRENCE-HAVERHILL VIA AMAZON/WARD HILL, 1/LAWRENCE-HAVERHILL VIA THE LOOP, 23/BEACH EXPRESS, 24/LAWRENCE-LOWELL, 2/ANDOVER SQUARE VIA SOUTH BROADWAY, 3/NORTH ANDOVER/WOODRIDGE, 4/THE LOOP VIA PROSPECT HILL, 5/MERRIMAC PLAZA/DANA FARBER VIA WATER STREET, 6/HOLY FAMILY HOSPITAL VIA LAWRENCE GENERAL, 7/BEACON STREET/MOUNT VERNON, 8/NORTH ANDOVER MALL VIA PARKER STREET, 9/MERRIMACK COLLEGE VIA SOUTH UNION STREET/NORTH ANDOVER MALL"
3776,2448875,1,North Andover Mall - Market Basket,"21/ANDOVER SHUTTLE, 3/NORTH ANDOVER/WOODRIDGE, 8/NORTH ANDOVER MALL VIA PARKER STREET, 9/MERRIMACK COLLEGE VIA SOUTH UNION STREET/NORTH ANDOVER MALL"
3776,4247397,2,Woodridge Housing,3/NORTH ANDOVER/WOODRIDGE
3776,2448876,3,Chickering Road & Peters Street,3/NORTH ANDOVER/WOODRIDGE
3776,2448884,4,Heritage Green Condominiums,3/NORTH ANDOVER/WOODRIDGE
3776,2448908,5,Main Street & Sutton Street,3/NORTH ANDOVER/WOODRIDGE
3776,2448882,6,McGovern Transportation Center,"10/VILLAGE MALL VIA BROADWAY, 11/LAWRENCE-HAVERHILL-NEWBURYPORT LIMITED, 14/LAWRENCE-HAVERHILL VIA AMAZON/WARD HILL, 1/LAWRENCE-HAVERHILL VIA THE LOOP, 23/BEACH EXPRESS, 24/LAWRENCE-LOWELL, 2/ANDOVER SQUARE VIA SOUTH BROADWAY, 3/NORTH ANDOVER/WOODRIDGE, 4/THE LOOP VIA PROSPECT HILL, 5/MERRIMAC PLAZA/DANA FARBER VIA WATER STREET, 6/HOLY FAMILY HOSPITAL VIA LAWRENCE GENERAL, 7/BEACON STREET/MOUNT VERNON, 8/NORTH ANDOVER MALL VIA PARKER STREET, 9/MERRIMACK COLLEGE VIA SOUTH UNION STREET/NORTH ANDOVER MALL"
3778,2448882,1,McGovern Transportation Center,"10/VILLAGE MALL VIA BROADWAY, 11/LAWRENCE-HAVERHILL-NEWBURYPORT LIMITED, 14/LAWRENCE-HAVERHILL VIA AMAZON/WARD HILL, 1/LAWRENCE-HAVERHILL VIA THE LOOP, 23/BEACH EXPRESS, 24/LAWRENCE-LOWELL, 2/ANDOVER SQUARE VIA SOUTH BROADWAY, 3/NORTH ANDOVER/WOODRIDGE, 4/THE LOOP VIA PROSPECT HILL, 5/MERRIMAC PLAZA/DANA FARBER VIA WATER STREET, 6/HOLY FAMILY HOSPITAL VIA LAWRENCE GENERAL, 7/BEACON STREET/MOUNT VERNON, 8/NORTH ANDOVER MALL VIA PARKER STREET, 9/MERRIMACK COLLEGE VIA SOUTH UNION STREET/NORTH ANDOVER MALL"
3778,2448786,2,Main Street & Sutton Street,3/NORTH ANDOVER/WOODRIDGE
3778,2448881,3,Heritage Green Condominiums,3/NORTH ANDOVER/WOODRIDGE
3778,2448801,4,Chickering Road & Peters Street,3/NORTH ANDOVER/WOODRIDGE
3778,4247397,5,Woodridge Housing,3/NORTH ANDOVER/WOODRIDGE
3778,2448875,6,North Andover Mall - Market Basket,"21/ANDOVER SHUTTLE, 3/NORTH ANDOVER/WOODRIDGE, 8/NORTH ANDOVER MALL VIA PARKER STREET, 9/MERRIMACK COLLEGE VIA SOUTH UNION STREET/NORTH ANDOVER MALL"
3779,2448882,1,McGovern Transportation Center,"10/VILLAGE MALL VIA BROADWAY, 11/LAWRENCE-HAVERHILL-NEWBURYPORT LIMITED, 14/LAWRENCE-HAVERHILL VIA AMAZON/WARD HILL, 1/LAWRENCE-HAVERHILL VIA THE LOOP, 23/BEACH EXPRESS, 24/LAWRENCE-LOWELL, 2/ANDOVER SQUARE VIA SOUTH BROADWAY, 3/NORTH ANDOVER/WOODRIDGE, 4/THE LOOP VIA PROSPECT HILL, 5/MERRIMAC PLAZA/DANA FARBER VIA WATER STREET, 6/HOLY FAMILY HOSPITAL VIA LAWRENCE GENERAL, 7/BEACON STREET/MOUNT VERNON, 8/NORTH ANDOVER MALL VIA PARKER STREET, 9/MERRIMACK COLLEGE VIA SOUTH UNION STREET/NORTH ANDOVER MALL"
3779,2448786,2,Main Street & Sutton Street,3/NORTH ANDOVER/WOODRIDGE
3779,2448881,3,Heritage Green Condominiums,3/NORTH ANDOVER/WOODRIDGE
3779,2448801,4,Chickering Road & Peters Street,3/NORTH ANDOVER/WOODRIDGE
3779,4247397,5,Woodridge Housing,3/NORTH ANDOVER/WOODRIDGE
3779,2448875,6,North Andover Mall - Market Basket,"21/ANDOVER SHUTTLE, 3/NORTH ANDOVER/WOODRIDGE, 8/NORTH ANDOVER MALL VIA PARKER STREET, 9/MERRIMACK COLLEGE VIA SOUTH UNION STREET/NORTH ANDOVER MALL"
3781,2448751,1,Methuen Plaza - Walmart,"1/LAWRENCE-HAVERHILL VIA THE LOOP, 4/THE LOOP VIA PROSPECT HILL"
3781,2448804,2,Target Plaza,"1/LAWRENCE-HAVERHILL VIA THE LOOP, 4/THE LOOP VIA PROSPECT HILL"
3781,4247407,3,Swan & Prospect,4/THE LOOP VIA PROSPECT HILL
3781,4247409,4,Ferry Street & E Haverhill Street,4/THE LOOP VIA PROSPECT HILL
3781,2448882,5,McGovern Transportation Center,"10/VILLAGE MALL VIA BROADWAY, 11/LAWRENCE-HAVERHILL-NEWBURYPORT LIMITED, 14/LAWRENCE-HAVERHILL VIA AMAZON/WARD HILL, 1/LAWRENCE-HAVERHILL VIA THE LOOP, 23/BEACH EXPRESS, 24/LAWRENCE-LOWELL, 2/ANDOVER SQUARE VIA SOUTH BROADWAY, 3/NORTH ANDOVER/WOODRIDGE, 4/THE LOOP VIA PROSPECT HILL, 5/MERRIMAC PLAZA/DANA FARBER VIA WATER STREET, 6/HOLY FAMILY HOSPITAL VIA LAWRENCE GENERAL, 7/BEACON STREET/MOUNT VERNON, 8/NORTH ANDOVER MALL VIA PARKER STREET, 9/MERRIMACK COLLEGE VIA SOUTH UNION STREET/NORTH ANDOVER MALL"
3782,2448751,1,Methuen Plaza - Walmart,"1/LAWRENCE-HAVERHILL VIA THE LOOP, 4/THE LOOP VIA PROSPECT HILL"
3782,2448804,2,Target Plaza,"1/LAWRENCE-HAVERHILL VIA THE LOOP, 4/THE LOOP VIA PROSPECT HILL"
3782,4247407,3,Swan & Prospect,4/THE LOOP VIA PROSPECT HILL
3782,4247409,4,Ferry Street & E Haverhill Street,4/THE LOOP VIA PROSPECT HILL
3782,2448882,5,McGovern Transportation Center,"10/VILLAGE MALL VIA BROADWAY, 11/LAWRENCE-HAVERHILL-NEWBURYPORT LIMITED, 14/LAWRENCE-HAVERHILL VIA AMAZON/WARD HILL, 1/LAWRENCE-HAVERHILL VIA THE LOOP, 23/BEACH EXPRESS, 24/LAWRENCE-LOWELL, 2/ANDOVER SQUARE VIA SOUTH BROADWAY, 3/NORTH ANDOVER/WOODRIDGE, 4/THE LOOP VIA PROSPECT HILL, 5/MERRIMAC PLAZA/DANA FARBER VIA WATER STREET, 6/HOLY FAMILY HOSPITAL VIA LAWRENCE GENERAL, 7/BEACON STREET/MOUNT VERNON, 8/NORTH ANDOVER MALL VIA PARKER STREET, 9/MERRIMACK COLLEGE VIA SOUTH UNION STREET/NORTH ANDOVER MALL"
3784,2448882,1,McGovern Transportation Center,"10/VILLAGE MALL VIA BROADWAY, 11/LAWRENCE-HAVERHILL-NEWBURYPORT LIMITED, 14/LAWRENCE-HAVERHILL VIA AMAZON/WARD HILL, 1/LAWRENCE-HAVERHILL VIA THE LOOP, 23/BEACH EXPRESS, 24/LAWRENCE-LOWELL, 2/ANDOVER SQUARE VIA SOUTH BROADWAY, 3/NORTH ANDOVER/WOODRIDGE, 4/THE LOOP VIA PROSPECT HILL, 5/MERRIMAC PLAZA/DANA FARBER VIA WATER STREET, 6/HOLY FAMILY HOSPITAL VIA LAWRENCE GENERAL, 7/BEACON STREET/MOUNT VERNON, 8/NORTH ANDOVER MALL VIA PARKER STREET, 9/MERRIMACK COLLEGE VIA SOUTH UNION STREET/NORTH ANDOVER MALL"
3784,2586358,2,Ferry Street & E Haverhill Street,4/THE LOOP VIA PROSPECT HILL
3784,4210441,3,Swan and Prospect,4/THE LOOP VIA PROSPECT HILL
3784,2448859,4,The Loop,"23/BEACH EXPRESS, 4/THE LOOP VIA PROSPECT HILL"
3784,2448751,5,Methuen Plaza - Walmart,"1/LAWRENCE-HAVERHILL VIA THE LOOP, 4/THE LOOP VIA PROSPECT HILL"
3785,2448882,1,McGovern Transportation Center,"10/VILLAGE MALL VIA BROADWAY, 11/LAWRENCE-HAVERHILL-NEWBURYPORT LIMITED, 14/LAWRENCE-HAVERHILL VIA AMAZON/WARD HILL, 1/LAWRENCE-HAVERHILL VIA THE LOOP, 23/BEACH EXPRESS, 24/LAWRENCE-LOWELL, 2/ANDOVER SQUARE VIA SOUTH BROADWAY, 3/NORTH ANDOVER/WOODRIDGE, 4/THE LOOP VIA PROSPECT HILL, 5/MERRIMAC PLAZA/DANA FARBER VIA WATER STREET, 6/HOLY FAMILY HOSPITAL VIA LAWRENCE GENERAL, 7/BEACON STREET/MOUNT VERNON, 8/NORTH ANDOVER MALL VIA PARKER STREET, 9/MERRIMACK COLLEGE VIA SOUTH UNION STREET/NORTH ANDOVER MALL"
3785,2586358,2,Ferry Street & E Haverhill Street,4/THE LOOP VIA PROSPECT HILL
3785,4210441,3,Swan and Prospect,4/THE LOOP VIA PROSPECT HILL
3785,2448859,4,The Loop,"23/BEACH EXPRESS, 4/THE LOOP VIA PROSPECT HILL"
3785,2448751,5,Methuen Plaza - Walmart,"1/LAWRENCE-HAVERHILL VIA THE LOOP, 4/THE LOOP VIA PROSPECT HILL"
3787,2448785,1,Merrimack Plaza - Rite-Aid Pharmacy,"24/LAWRENCE-LOWELL, 5/MERRIMAC PLAZA/DANA FARBER VIA WATER STREET"
3787,2628774,2,Branch Street - Dana-Farber Cancer Institute,5/MERRIMAC PLAZA/DANA FARBER VIA WATER STREET
3787,2448734,3,Water Street & Ames Street,5/MERRIMAC PLAZA/DANA FARBER VIA WATER STREET
3787,4212841,4,Margin St & Essex St,5/MERRIMAC PLAZA/DANA FARBER VIA WATER STREET
3787,4247443,5,Essex Street HUB,"5/MERRIMAC PLAZA/DANA FARBER VIA WATER STREET, 7/BEACON STREET/MOUNT VERNON"
3787,2448882,6,McGovern Transportation Center,"10/VILLAGE MALL VIA BROADWAY, 11/LAWRENCE-HAVERHILL-NEWBURYPORT LIMITED, 14/LAWRENCE-HAVERHILL VIA AMAZON/WARD HILL, 1/LAWRENCE-HAVERHILL VIA THE LOOP, 23/BEACH EXPRESS, 24/LAWRENCE-LOWELL, 2/ANDOVER SQUARE VIA SOUTH BROADWAY, 3/NORTH ANDOVER/WOODRIDGE, 4/THE LOOP VIA PROSPECT HILL, 5/MERRIMAC PLAZA/DANA FARBER VIA WATER STREET, 6/HOLY FAMILY HOSPITAL VIA LAWRENCE GENERAL, 7/BEACON STREET/MOUNT VERNON, 8/NORTH ANDOVER MALL VIA PARKER STREET, 9/MERRIMACK COLLEGE VIA SOUTH UNION STREET/NORTH ANDOVER MALL"
3788,2448785,1,Merrimack Plaza - Rite-Aid Pharmacy,"24/LAWRENCE-LOWELL, 5/MERRIMAC PLAZA/DANA FARBER VIA WATER STREET"
3788,2448734,2,Water Street & Ames Street,5/MERRIMAC PLAZA/DANA FARBER VIA WATER STREET
3788,4212841,3,Margin St & Essex St,5/MERRIMAC PLAZA/DANA FARBER VIA WATER STREET
3788,4247443,4,Essex Street HUB,"5/MERRIMAC PLAZA/DANA FARBER VIA WATER STREET, 7/BEACON STREET/MOUNT VERNON"
3788,2448882,5,McGovern Transportation Center,"10/VILLAGE MALL VIA BROADWAY, 11/LAWRENCE-HAVERHILL-NEWBURYPORT LIMITED, 14/LAWRENCE-HAVERHILL VIA AMAZON/WARD HILL, 1/LAWRENCE-HAVERHILL VIA THE LOOP, 23/BEACH EXPRESS, 24/LAWRENCE-LOWELL, 2/ANDOVER SQUARE VIA SOUTH BROADWAY, 3/NORTH ANDOVER/WOODRIDGE, 4/THE LOOP VIA PROSPECT HILL, 5/MERRIMAC PLAZA/DANA FARBER VIA WATER STREET, 6/HOLY FAMILY HOSPITAL VIA LAWRENCE GENERAL, 7/BEACON STREET/MOUNT VERNON, 8/NORTH ANDOVER MALL VIA PARKER STREET, 9/MERRIMACK COLLEGE VIA SOUTH UNION STREET/NORTH ANDOVER MALL"
3790,2448882,1,McGovern Transportation Center,"10/VILLAGE MALL VIA BROADWAY, 11/LAWRENCE-HAVERHILL-NEWBURYPORT LIMITED, 14/LAWRENCE-HAVERHILL VIA AMAZON/WARD HILL, 1/LAWRENCE-HAVERHILL VIA THE LOOP, 23/BEACH EXPRESS, 24/LAWRENCE-LOWELL, 2/ANDOVER SQUARE VIA SOUTH BROADWAY, 3/NORTH ANDOVER/WOODRIDGE, 4/THE LOOP VIA PROSPECT HILL, 5/MERRIMAC PLAZA/DANA FARBER VIA WATER STREET, 6/HOLY FAMILY HOSPITAL VIA LAWRENCE GENERAL, 7/BEACON STREET/MOUNT VERNON, 8/NORTH ANDOVER MALL VIA PARKER STREET, 9/MERRIMACK COLLEGE VIA SOUTH UNION STREET/NORTH ANDOVER MALL"
3790,2454434,2,Essex Street HUB,"10/VILLAGE MALL VIA BROADWAY, 26/IRS/RAYTHEON (NUKES & TAXES), 2/ANDOVER SQUARE VIA SOUTH BROADWAY, 5/MERRIMAC PLAZA/DANA FARBER VIA WATER STREET, 7/BEACON STREET/MOUNT VERNON"
3790,4212841,3,Margin St & Essex St,5/MERRIMAC PLAZA/DANA FARBER VIA WATER STREET
3790,2448912,4,Water Street & Ames Street,5/MERRIMAC PLAZA/DANA FARBER VIA WATER STREET
3790,2448785,5,Merrimack Plaza - Rite-Aid Pharmacy,"24/LAWRENCE-LOWELL, 5/MERRIMAC PLAZA/DANA FARBER VIA WATER STREET"
3790,2628774,6,Branch Street - Dana-Farber Cancer Institute,5/MERRIMAC PLAZA/DANA FARBER VIA WATER STREET
3791,2448882,1,McGovern Transportation Center,"10/VILLAGE MALL VIA BROADWAY, 11/LAWRENCE-HAVERHILL-NEWBURYPORT LIMITED, 14/LAWRENCE-HAVERHILL VIA AMAZON/WARD HILL, 1/LAWRENCE-HAVERHILL VIA THE LOOP, 23/BEACH EXPRESS, 24/LAWRENCE-LOWELL, 2/ANDOVER SQUARE VIA SOUTH BROADWAY, 3/NORTH ANDOVER/WOODRIDGE, 4/THE LOOP VIA PROSPECT HILL, 5/MERRIMAC PLAZA/DANA FARBER VIA WATER STREET, 6/HOLY FAMILY HOSPITAL VIA LAWRENCE GENERAL, 7/BEACON STREET/MOUNT VERNON, 8/NORTH ANDOVER MALL VIA PARKER STREET, 9/MERRIMACK COLLEGE VIA SOUTH UNION STREET/NORTH ANDOVER MALL"
3791,2454434,2,Essex Street HUB,"10/VILLAGE MALL VIA BROADWAY, 26/IRS/RAYTHEON (NUKES & TAXES), 2/ANDOVER SQUARE VIA SOUTH BROADWAY, 5/MERRIMAC PLAZA/DANA FARBER VIA WATER STREET, 7/BEACON STREET/MOUNT VERNON"
3791,4212841,3,Margin St & Essex St,5/MERRIMAC PLAZA/DANA FARBER VIA WATER STREET
3791,2448912,4,Water Street & Ames Street,5/MERRIMAC PLAZA/DANA FARBER VIA WATER STREET
3791,2448785,5,Merrimack Plaza - Rite-Aid Pharmacy,"24/LAWRENCE-LOWELL, 5/MERRIMAC PLAZA/DANA FARBER VIA WATER STREET"
3793,2448882,1,McGovern Transportation Center,"10/VILLAGE MALL VIA BROADWAY, 11/LAWRENCE-HAVERHILL-NEWBURYPORT LIMITED, 14/LAWRENCE-HAVERHILL VIA AMAZON/WARD HILL, 1/LAWRENCE-HAVERHILL VIA THE LOOP, 23/BEACH EXPRESS, 24/LAWRENCE-LOWELL, 2/ANDOVER SQUARE VIA SOUTH BROADWAY, 3/NORTH ANDOVER/WOODRIDGE, 4/THE LOOP VIA PROSPECT HILL, 5/MERRIMAC PLAZA/DANA FARBER VIA WATER STREET, 6/HOLY FAMILY HOSPITAL VIA LAWRENCE GENERAL, 7/BEACON STREET/MOUNT VERNON, 8/NORTH ANDOVER MALL VIA PARKER STREET, 9/MERRIMACK COLLEGE VIA SOUTH UNION STREET/NORTH ANDOVER MALL"
3793,2448741,2,Andover Street & Winthrop Street,"27/BEACON STREET SPECIAL, 8/NORTH ANDOVER MALL VIA PARKER STREET"
3793,4230473,3,Plaza 114 /North Parish Road,"8/NORTH ANDOVER MALL VIA PARKER STREET, 9/MERRIMACK COLLEGE VIA SOUTH UNION STREET/NORTH ANDOVER MALL"
3793,2448875,4,North Andover Mall - Market Basket,"21/ANDOVER SHUTTLE, 3/NORTH ANDOVER/WOODRIDGE, 8/NORTH ANDOVER MALL VIA PARKER STREET, 9/MERRIMACK COLLEGE VIA SOUTH UNION STREET/NORTH ANDOVER MALL"
3794,2454463,1,North Andover Mall - AT&T,"21/ANDOVER SHUTTLE, 3/NORTH ANDOVER/WOODRIDGE, 8/NORTH ANDOVER MALL VIA PARKER STREET, 9/MERRIMACK COLLEGE VIA SOUTH UNION STREET/NORTH ANDOVER MALL"
3794,4230476,2,Plaza 114/North Parish Road,"8/NORTH ANDOVER MALL VIA PARKER STREET, 9/MERRIMACK COLLEGE VIA SOUTH UNION STREET/NORTH ANDOVER MALL"
3794,2448924,3,Andover Street & Winthrop Street,"27/BEACON STREET SPECIAL, 8/NORTH ANDOVER MALL VIA PARKER STREET"
3794,2448882,4,McGovern Transportation Center,"10/VILLAGE MALL VIA BROADWAY, 11/LAWRENCE-HAVERHILL-NEWBURYPORT LIMITED, 14/LAWRENCE-HAVERHILL VIA AMAZON/WARD HILL, 1/LAWRENCE-HAVERHILL VIA THE LOOP, 23/BEACH EXPRESS, 24/LAWRENCE-LOWELL, 2/ANDOVER SQUARE VIA SOUTH BROADWAY, 3/NORTH ANDOVER/WOODRIDGE, 4/THE LOOP VIA PROSPECT HILL, 5/MERRIMAC PLAZA/DANA FARBER VIA WATER STREET, 6/HOLY FAMILY HOSPITAL VIA LAWRENCE GENERAL, 7/BEACON STREET/MOUNT VERNON, 8/NORTH ANDOVER MALL VIA PARKER STREET, 9/MERRIMACK COLLEGE VIA SOUTH UNION STREET/NORTH ANDOVER MALL"
3795,2454463,1,North Andover Mall - AT&T,"21/ANDOVER SHUTTLE, 3/NORTH ANDOVER/WOODRIDGE, 8/NORTH ANDOVER MALL VIA PARKER STREET, 9/MERRIMACK COLLEGE VIA SOUTH UNION STREET/NORTH ANDOVER MALL"
3795,4230476,2,Plaza 114/North Parish Road,"8/NORTH ANDOVER MALL VIA PARKER STREET, 9/MERRIMACK COLLEGE VIA SOUTH UNION STREET/NORTH ANDOVER MALL"
3795,2448924,3,Andover Street & Winthrop Street,"27/BEACON STREET SPECIAL, 8/NORTH ANDOVER MALL VIA PARKER STREET"
3795,2448882,4,McGovern Transportation Center,"10/VILLAGE MALL VIA BROADWAY, 11/LAWRENCE-HAVERHILL-NEWBURYPORT LIMITED, 14/LAWRENCE-HAVERHILL VIA AMAZON/WARD HILL, 1/LAWRENCE-HAVERHILL VIA THE LOOP, 23/BEACH EXPRESS, 24/LAWRENCE-LOWELL, 2/ANDOVER SQUARE VIA SOUTH BROADWAY, 3/NORTH ANDOVER/WOODRIDGE, 4/THE LOOP VIA PROSPECT HILL, 5/MERRIMAC PLAZA/DANA FARBER VIA WATER STREET, 6/HOLY FAMILY HOSPITAL VIA LAWRENCE GENERAL, 7/BEACON STREET/MOUNT VERNON, 8/NORTH ANDOVER MALL VIA PARKER STREET, 9/MERRIMACK COLLEGE VIA SOUTH UNION STREET/NORTH ANDOVER MALL"
3797,2448882,1,McGovern Transportation Center,"10/VILLAGE MALL VIA BROADWAY, 11/LAWRENCE-HAVERHILL-NEWBURYPORT LIMITED, 14/LAWRENCE-HAVERHILL VIA AMAZON/WARD HILL, 1/LAWRENCE-HAVERHILL VIA THE LOOP, 23/BEACH EXPRESS, 24/LAWRENCE-LOWELL, 2/ANDOVER SQUARE VIA SOUTH BROADWAY, 3/NORTH ANDOVER/WOODRIDGE, 4/THE LOOP VIA PROSPECT HILL, 5/MERRIMAC PLAZA/DANA FARBER VIA WATER STREET, 6/HOLY FAMILY HOSPITAL VIA LAWRENCE GENERAL, 7/BEACON STREET/MOUNT VERNON, 8/NORTH ANDOVER MALL VIA PARKER STREET, 9/MERRIMACK COLLEGE VIA SOUTH UNION STREET/NORTH ANDOVER MALL"
3797,2448741,2,Andover Street & Winthrop Street,"27/BEACON STREET SPECIAL, 8/NORTH ANDOVER MALL VIA PARKER STREET"
3797,4230473,3,Plaza 114 /North Parish Road,"8/NORTH ANDOVER MALL VIA PARKER STREET, 9/MERRIMACK COLLEGE VIA SOUTH UNION STREET/NORTH ANDOVER MALL"
3797,2448875,4,North Andover Mall - Market Basket,"21/ANDOVER SHUTTLE, 3/NORTH ANDOVER/WOODRIDGE, 8/NORTH ANDOVER MALL VIA PARKER STREET, 9/MERRIMACK COLLEGE VIA SOUTH UNION STREET/NORTH ANDOVER MALL"
3799,4247356,1,Merrimack College,"8/NORTH ANDOVER MALL VIA PARKER STREET, 9/MERRIMACK COLLEGE VIA SOUTH UNION STREET/NORTH ANDOVER MALL"
3799,2448875,2,North Andover Mall - Market Basket,"21/ANDOVER SHUTTLE, 3/NORTH ANDOVER/WOODRIDGE, 8/NORTH ANDOVER MALL VIA PARKER STREET, 9/MERRIMACK COLLEGE VIA SOUTH UNION STREET/NORTH ANDOVER MALL"
3799,2454477,3,Heritage Place,"8/NORTH ANDOVER MALL VIA PARKER STREET, 9/MERRIMACK COLLEGE VIA SOUTH UNION STREET/NORTH ANDOVER MALL"
3799,4247450,4,Union & Andover Street,9/MERRIMACK COLLEGE VIA SOUTH UNION STREET/NORTH ANDOVER MALL
3799,2448882,5,McGovern Transportation Center,"10/VILLAGE MALL VIA BROADWAY, 11/LAWRENCE-HAVERHILL-NEWBURYPORT LIMITED, 14/LAWRENCE-HAVERHILL VIA AMAZON/WARD HILL, 1/LAWRENCE-HAVERHILL VIA THE LOOP, 23/BEACH EXPRESS, 24/LAWRENCE-LOWELL, 2/ANDOVER SQUARE VIA SOUTH BROADWAY, 3/NORTH ANDOVER/WOODRIDGE, 4/THE LOOP VIA PROSPECT HILL, 5/MERRIMAC PLAZA/DANA FARBER VIA WATER STREET, 6/HOLY FAMILY HOSPITAL VIA LAWRENCE GENERAL, 7/BEACON STREET/MOUNT VERNON, 8/NORTH ANDOVER MALL VIA PARKER STREET, 9/MERRIMACK COLLEGE VIA SOUTH UNION STREET/NORTH ANDOVER MALL"
3800,4247356,1,Merrimack College,"8/NORTH ANDOVER MALL VIA PARKER STREET, 9/MERRIMACK COLLEGE VIA SOUTH UNION STREET/NORTH ANDOVER MALL"
3800,2448875,2,North Andover Mall - Market Basket,"21/ANDOVER SHUTTLE, 3/NORTH ANDOVER/WOODRIDGE, 8/NORTH ANDOVER MALL VIA PARKER STREET, 9/MERRIMACK COLLEGE VIA SOUTH UNION STREET/NORTH ANDOVER MALL"
3800,2454477,3,Heritage Place,"8/NORTH ANDOVER MALL VIA PARKER STREET, 9/MERRIMACK COLLEGE VIA SOUTH UNION STREET/NORTH ANDOVER MALL"
3800,4247450,4,Union & Andover Street,9/MERRIMACK COLLEGE VIA SOUTH UNION STREET/NORTH ANDOVER MALL
3800,2448882,5,McGovern Transportation Center,"10/VILLAGE MALL VIA BROADWAY, 11/LAWRENCE-HAVERHILL-NEWBURYPORT LIMITED, 14/LAWRENCE-HAVERHILL VIA AMAZON/WARD HILL, 1/LAWRENCE-HAVERHILL VIA THE LOOP, 23/BEACH EXPRESS, 24/LAWRENCE-LOWELL, 2/ANDOVER SQUARE VIA SOUTH BROADWAY, 3/NORTH ANDOVER/WOODRIDGE, 4/THE LOOP VIA PROSPECT HILL, 5/MERRIMAC PLAZA/DANA FARBER VIA WATER STREET, 6/HOLY FAMILY HOSPITAL VIA LAWRENCE GENERAL, 7/BEACON STREET/MOUNT VERNON, 8/NORTH ANDOVER MALL VIA PARKER STREET, 9/MERRIMACK COLLEGE VIA SOUTH UNION STREET/NORTH ANDOVER MALL"
3801,4247356,1,Merrimack College,"8/NORTH ANDOVER MALL VIA PARKER STREET, 9/MERRIMACK COLLEGE VIA SOUTH UNION STREET/NORTH ANDOVER MALL"
3801,2448875,2,North Andover Mall - Market Basket,"21/ANDOVER SHUTTLE, 3/NORTH ANDOVER/WOODRIDGE, 8/NORTH ANDOVER MALL VIA PARKER STREET, 9/MERRIMACK COLLEGE VIA SOUTH UNION STREET/NORTH ANDOVER MALL"
3801,2454477,3,Heritage Place,"8/NORTH ANDOVER MALL VIA PARKER STREET, 9/MERRIMACK COLLEGE VIA SOUTH UNION STREET/NORTH ANDOVER MALL"
3801,4247450,4,Union & Andover Street,9/MERRIMACK COLLEGE VIA SOUTH UNION STREET/NORTH ANDOVER MALL
3801,2448882,5,McGovern Transportation Center,"10/VILLAGE MALL VIA BROADWAY, 11/LAWRENCE-HAVERHILL-NEWBURYPORT LIMITED, 14/LAWRENCE-HAVERHILL VIA AMAZON/WARD HILL, 1/LAWRENCE-HAVERHILL VIA THE LOOP, 23/BEACH EXPRESS, 24/LAWRENCE-LOWELL, 2/ANDOVER SQUARE VIA SOUTH BROADWAY, 3/NORTH ANDOVER/WOODRIDGE, 4/THE LOOP VIA PROSPECT HILL, 5/MERRIMAC PLAZA/DANA FARBER VIA WATER STREET, 6/HOLY FAMILY HOSPITAL VIA LAWRENCE GENERAL, 7/BEACON STREET/MOUNT VERNON, 8/NORTH ANDOVER MALL VIA PARKER STREET, 9/MERRIMACK COLLEGE VIA SOUTH UNION STREET/NORTH ANDOVER MALL"
3802,2448882,1,McGovern Transportation Center,"10/VILLAGE MALL VIA BROADWAY, 11/LAWRENCE-HAVERHILL-NEWBURYPORT LIMITED, 14/LAWRENCE-HAVERHILL VIA AMAZON/WARD HILL, 1/LAWRENCE-HAVERHILL VIA THE LOOP, 23/BEACH EXPRESS, 24/LAWRENCE-LOWELL, 2/ANDOVER SQUARE VIA SOUTH BROADWAY, 3/NORTH ANDOVER/WOODRIDGE, 4/THE LOOP VIA PROSPECT HILL, 5/MERRIMAC PLAZA/DANA FARBER VIA WATER STREET, 6/HOLY FAMILY HOSPITAL VIA LAWRENCE GENERAL, 7/BEACON STREET/MOUNT VERNON, 8/NORTH ANDOVER MALL VIA PARKER STREET, 9/MERRIMACK COLLEGE VIA SOUTH UNION STREET/NORTH ANDOVER MALL"
3802,4247453,2,Union & Andover Street,9/MERRIMACK COLLEGE VIA SOUTH UNION STREET/NORTH ANDOVER MALL
3802,2454468,3,Heritage Place,"8/NORTH ANDOVER MALL VIA PARKER STREET, 9/MERRIMACK COLLEGE VIA SOUTH UNION STREET/NORTH ANDOVER MALL"
3802,2448875,4,North Andover Mall - Market Basket,"21/ANDOVER SHUTTLE, 3/NORTH ANDOVER/WOODRIDGE, 8/NORTH ANDOVER MALL VIA PARKER STREET, 9/MERRIMACK COLLEGE VIA SOUTH UNION STREET/NORTH ANDOVER MALL"
3802,4247356,5,Merrimack College,"8/NORTH ANDOVER MALL VIA PARKER STREET, 9/MERRIMACK COLLEGE VIA SOUTH UNION STREET/NORTH ANDOVER MALL"
3803,2448882,1,McGovern Transportation Center,"10/VILLAGE MALL VIA BROADWAY, 11/LAWRENCE-HAVERHILL-NEWBURYPORT LIMITED, 14/LAWRENCE-HAVERHILL VIA AMAZON/WARD HILL, 1/LAWRENCE-HAVERHILL VIA THE LOOP, 23/BEACH EXPRESS, 24/LAWRENCE-LOWELL, 2/ANDOVER SQUARE VIA SOUTH BROADWAY, 3/NORTH ANDOVER/WOODRIDGE, 4/THE LOOP VIA PROSPECT HILL, 5/MERRIMAC PLAZA/DANA FARBER VIA WATER STREET, 6/HOLY FAMILY HOSPITAL VIA LAWRENCE GENERAL, 7/BEACON STREET/MOUNT VERNON, 8/NORTH ANDOVER MALL VIA PARKER STREET, 9/MERRIMACK COLLEGE VIA SOUTH UNION STREET/NORTH ANDOVER MALL"
3803,4247453,2,Union & Andover Street,9/MERRIMACK COLLEGE VIA SOUTH UNION STREET/NORTH ANDOVER MALL
3803,2454468,3,Heritage Place,"8/NORTH ANDOVER MALL VIA PARKER STREET, 9/MERRIMACK COLLEGE VIA SOUTH UNION STREET/NORTH ANDOVER MALL"
3803,2448875,4,North Andover Mall - Market Basket,"21/ANDOVER SHUTTLE, 3/NORTH ANDOVER/WOODRIDGE, 8/NORTH ANDOVER MALL VIA PARKER STREET, 9/MERRIMACK COLLEGE VIA SOUTH UNION STREET/NORTH ANDOVER MALL"
3803,4247356,5,Merrimack College,"8/NORTH ANDOVER MALL VIA PARKER STREET, 9/MERRIMACK COLLEGE VIA SOUTH UNION STREET/NORTH ANDOVER MALL"
3804,2448882,1,McGovern Transportation Center,"10/VILLAGE MALL VIA BROADWAY, 11/LAWRENCE-HAVERHILL-NEWBURYPORT LIMITED, 14/LAWRENCE-HAVERHILL VIA AMAZON/WARD HILL, 1/LAWRENCE-HAVERHILL VIA THE LOOP, 23/BEACH EXPRESS, 24/LAWRENCE-LOWELL, 2/ANDOVER SQUARE VIA SOUTH BROADWAY, 3/NORTH ANDOVER/WOODRIDGE, 4/THE LOOP VIA PROSPECT HILL, 5/MERRIMAC PLAZA/DANA FARBER VIA WATER STREET, 6/HOLY FAMILY HOSPITAL VIA LAWRENCE GENERAL, 7/BEACON STREET/MOUNT VERNON, 8/NORTH ANDOVER MALL VIA PARKER STREET, 9/MERRIMACK COLLEGE VIA SOUTH UNION STREET/NORTH ANDOVER MALL"
3804,4247453,2,Union & Andover Street,9/MERRIMACK COLLEGE VIA SOUTH UNION STREET/NORTH ANDOVER MALL
3804,2454468,3,Heritage Place,"8/NORTH ANDOVER MALL VIA PARKER STREET, 9/MERRIMACK COLLEGE VIA SOUTH UNION STREET/NORTH ANDOVER MALL"
3804,2448875,4,North Andover Mall - Market Basket,"21/ANDOVER SHUTTLE, 3/NORTH ANDOVER/WOODRIDGE, 8/NORTH ANDOVER MALL VIA PARKER STREET, 9/MERRIMACK COLLEGE VIA SOUTH UNION STREET/NORTH ANDOVER MALL"
3804,4247356,5,Merrimack College,"8/NORTH ANDOVER MALL VIA PARKER STREET, 9/MERRIMACK COLLEGE VIA SOUTH UNION STREET/NORTH ANDOVER MALL"
3805,2448886,1,Village Plaza - Dollar Tree,10/VILLAGE MALL VIA BROADWAY
3805,2582998,2,Methuen Square,"10/VILLAGE MALL VIA BROADWAY, 99/Methuen-Lawrence-Andover to Boston"
3805,2448765,3,NECC Lawrence Campus,"10/VILLAGE MALL VIA BROADWAY, 1/LAWRENCE-HAVERHILL VIA THE LOOP, 56/NECC Express"
3805,2448882,4,McGovern Transportation Center,"10/VILLAGE MALL VIA BROADWAY, 11/LAWRENCE-HAVERHILL-NEWBURYPORT LIMITED, 14/LAWRENCE-HAVERHILL VIA AMAZON/WARD HILL, 1/LAWRENCE-HAVERHILL VIA THE LOOP, 23/BEACH EXPRESS, 24/LAWRENCE-LOWELL, 2/ANDOVER SQUARE VIA SOUTH BROADWAY, 3/NORTH ANDOVER/WOODRIDGE, 4/THE LOOP VIA PROSPECT HILL, 5/MERRIMAC PLAZA/DANA FARBER VIA WATER STREET, 6/HOLY FAMILY HOSPITAL VIA LAWRENCE GENERAL, 7/BEACON STREET/MOUNT VERNON, 8/NORTH ANDOVER MALL VIA PARKER STREET, 9/MERRIMACK COLLEGE VIA SOUTH UNION STREET/NORTH ANDOVER MALL"
3806,2448886,1,Village Plaza - Dollar Tree,10/VILLAGE MALL VIA BROADWAY
3806,2582998,2,Methuen Square,"10/VILLAGE MALL VIA BROADWAY, 99/Methuen-Lawrence-Andover to Boston"
3806,2448765,3,NECC Lawrence Campus,"10/VILLAGE MALL VIA BROADWAY, 1/LAWRENCE-HAVERHILL VIA THE LOOP, 56/NECC Express"
3806,2448882,4,McGovern Transportation Center,"10/VILLAGE MALL VIA BROADWAY, 11/LAWRENCE-HAVERHILL-NEWBURYPORT LIMITED, 14/LAWRENCE-HAVERHILL VIA AMAZON/WARD HILL, 1/LAWRENCE-HAVERHILL VIA THE LOOP, 23/BEACH EXPRESS, 24/LAWRENCE-LOWELL, 2/ANDOVER SQUARE VIA SOUTH BROADWAY, 3/NORTH ANDOVER/WOODRIDGE, 4/THE LOOP VIA PROSPECT HILL, 5/MERRIMAC PLAZA/DANA FARBER VIA WATER STREET, 6/HOLY FAMILY HOSPITAL VIA LAWRENCE GENERAL, 7/BEACON STREET/MOUNT VERNON, 8/NORTH ANDOVER MALL VIA PARKER STREET, 9/MERRIMACK COLLEGE VIA SOUTH UNION STREET/NORTH ANDOVER MALL"
3808,2448882,1,McGovern Transportation Center,"10/VILLAGE MALL VIA BROADWAY, 11/LAWRENCE-HAVERHILL-NEWBURYPORT LIMITED, 14/LAWRENCE-HAVERHILL VIA AMAZON/WARD HILL, 1/LAWRENCE-HAVERHILL VIA THE LOOP, 23/BEACH EXPRESS, 24/LAWRENCE-LOWELL, 2/ANDOVER SQUARE VIA SOUTH BROADWAY, 3/NORTH ANDOVER/WOODRIDGE, 4/THE LOOP VIA PROSPECT HILL, 5/MERRIMAC PLAZA/DANA FARBER VIA WATER STREET, 6/HOLY FAMILY HOSPITAL VIA LAWRENCE GENERAL, 7/BEACON STREET/MOUNT VERNON, 8/NORTH ANDOVER MALL VIA PARKER STREET, 9/MERRIMACK COLLEGE VIA SOUTH UNION STREET/NORTH ANDOVER MALL"
3808,2452472,2,Hampshire Street & Essex Street,"10/VILLAGE MALL VIA BROADWAY, 1/LAWRENCE-HAVERHILL VIA THE LOOP, 23/BEACH EXPRESS, 24/LAWRENCE-LOWELL, 3/NORTH ANDOVER/WOODRIDGE, 4/THE LOOP VIA PROSPECT HILL, 9/MERRIMACK COLLEGE VIA SOUTH UNION STREET/NORTH ANDOVER MALL"
3808,2448830,3,Methuen Square,10/VILLAGE MALL VIA BROADWAY
3808,2448828,4,Mystic Street,10/VILLAGE MALL VIA BROADWAY
3808,2448886,5,Village Plaza - Dollar Tree,10/VILLAGE MALL VIA BROADWAY
3809,2448882,1,McGovern Transportation Center,"10/VILLAGE MALL VIA BROADWAY, 11/LAWRENCE-HAVERHILL-NEWBURYPORT LIMITED, 14/LAWRENCE-HAVERHILL VIA AMAZON/WARD HILL, 1/LAWRENCE-HAVERHILL VIA THE LOOP, 23/BEACH EXPRESS, 24/LAWRENCE-LOWELL, 2/ANDOVER SQUARE VIA SOUTH BROADWAY, 3/NORTH ANDOVER/WOODRIDGE, 4/THE LOOP VIA PROSPECT HILL, 5/MERRIMAC PLAZA/DANA FARBER VIA WATER STREET, 6/HOLY FAMILY HOSPITAL VIA LAWRENCE GENERAL, 7/BEACON STREET/MOUNT VERNON, 8/NORTH ANDOVER MALL VIA PARKER STREET, 9/MERRIMACK COLLEGE VIA SOUTH UNION STREET/NORTH ANDOVER MALL"
3809,2452472,2,Hampshire Street & Essex Street,"10/VILLAGE MALL VIA BROADWAY, 1/LAWRENCE-HAVERHILL VIA THE LOOP, 23/BEACH EXPRESS, 24/LAWRENCE-LOWELL, 3/NORTH ANDOVER/WOODRIDGE, 4/THE LOOP VIA PROSPECT HILL, 9/MERRIMACK COLLEGE VIA SOUTH UNION STREET/NORTH ANDOVER MALL"
3809,2448830,3,Methuen Square,10/VILLAGE MALL VIA BROADWAY
3809,2448828,4,Mystic Street,10/VILLAGE MALL VIA BROADWAY
3809,2448886,5,Village Plaza - Dollar Tree,10/VILLAGE MALL VIA BROADWAY
3813,2448882,1,McGovern Transportation Center,"10/VILLAGE MALL VIA BROADWAY, 11/LAWRENCE-HAVERHILL-NEWBURYPORT LIMITED, 14/LAWRENCE-HAVERHILL VIA AMAZON/WARD HILL, 1/LAWRENCE-HAVERHILL VIA THE LOOP, 23/BEACH EXPRESS, 24/LAWRENCE-LOWELL, 2/ANDOVER SQUARE VIA SOUTH BROADWAY, 3/NORTH ANDOVER/WOODRIDGE, 4/THE LOOP VIA PROSPECT HILL, 5/MERRIMAC PLAZA/DANA FARBER VIA WATER STREET, 6/HOLY FAMILY HOSPITAL VIA LAWRENCE GENERAL, 7/BEACON STREET/MOUNT VERNON, 8/NORTH ANDOVER MALL VIA PARKER STREET, 9/MERRIMACK COLLEGE VIA SOUTH UNION STREET/NORTH ANDOVER MALL"
3813,4247440,2,Essex and Hampshire Street,24/LAWRENCE-LOWELL
3813,2448785,3,Merrimack Plaza - Rite-Aid Pharmacy,"24/LAWRENCE-LOWELL, 5/MERRIMAC PLAZA/DANA FARBER VIA WATER STREET"
3813,2448880,4,Merrimack Avenue & Draycott Avenue - Lenzis Bakery,24/LAWRENCE-LOWELL
3813,2448883,5,UMass Lowell Inn & Conference Center,24/LAWRENCE-LOWELL
3813,2448866,6,Robert B. Kennedy Transfer Center,24/LAWRENCE-LOWELL
3814,2448866,1,Robert B. Kennedy Transfer Center,24/LAWRENCE-LOWELL
3814,2594327,2,Merrimack Avenue & Intervale Avenue - Lenzis Bakery,24/LAWRENCE-LOWELL
3814,2448785,3,Merrimack Plaza - Rite-Aid Pharmacy,"24/LAWRENCE-LOWELL, 5/MERRIMAC PLAZA/DANA FARBER VIA WATER STREET"
3814,4247441,4,NECC Common Street HUB,"24/LAWRENCE-LOWELL, 5/MERRIMAC PLAZA/DANA FARBER VIA WATER STREET"
3814,2448882,5,McGovern Transportation Center,"10/VILLAGE MALL VIA BROADWAY, 11/LAWRENCE-HAVERHILL-NEWBURYPORT LIMITED, 14/LAWRENCE-HAVERHILL VIA AMAZON/WARD HILL, 1/LAWRENCE-HAVERHILL VIA THE LOOP, 23/BEACH EXPRESS, 24/LAWRENCE-LOWELL, 2/ANDOVER SQUARE VIA SOUTH BROADWAY, 3/NORTH ANDOVER/WOODRIDGE, 4/THE LOOP VIA PROSPECT HILL, 5/MERRIMAC PLAZA/DANA FARBER VIA WATER STREET, 6/HOLY FAMILY HOSPITAL VIA LAWRENCE GENERAL, 7/BEACON STREET/MOUNT VERNON, 8/NORTH ANDOVER MALL VIA PARKER STREET, 9/MERRIMACK COLLEGE VIA SOUTH UNION STREET/NORTH ANDOVER MALL"
3815,2448866,1,Robert B. Kennedy Transfer Center,24/LAWRENCE-LOWELL
3815,2594327,2,Merrimack Avenue & Intervale Avenue - Lenzis Bakery,24/LAWRENCE-LOWELL
3815,2448785,3,Merrimack Plaza - Rite-Aid Pharmacy,"24/LAWRENCE-LOWELL, 5/MERRIMAC PLAZA/DANA FARBER VIA WATER STREET"
3815,4247441,4,NECC Common Street HUB,"24/LAWRENCE-LOWELL, 5/MERRIMAC PLAZA/DANA FARBER VIA WATER STREET"
3815,2448882,5,McGovern Transportation Center,"10/VILLAGE MALL VIA BROADWAY, 11/LAWRENCE-HAVERHILL-NEWBURYPORT LIMITED, 14/LAWRENCE-HAVERHILL VIA AMAZON/WARD HILL, 1/LAWRENCE-HAVERHILL VIA THE LOOP, 23/BEACH EXPRESS, 24/LAWRENCE-LOWELL, 2/ANDOVER SQUARE VIA SOUTH BROADWAY, 3/NORTH ANDOVER/WOODRIDGE, 4/THE LOOP VIA PROSPECT HILL, 5/MERRIMAC PLAZA/DANA FARBER VIA WATER STREET, 6/HOLY FAMILY HOSPITAL VIA LAWRENCE GENERAL, 7/BEACON STREET/MOUNT VERNON, 8/NORTH ANDOVER MALL VIA PARKER STREET, 9/MERRIMACK COLLEGE VIA SOUTH UNION STREET/NORTH ANDOVER MALL"
3819,2448767,1,Buckley Transportation Center,23/BEACH EXPRESS
3819,2448764,2,McGovern Transportation Center,"23/BEACH EXPRESS, 2/ANDOVER SQUARE VIA SOUTH BROADWAY, 99/Methuen-Lawrence-Andover to Boston"
3819,2448914,3,Salisbury Beach,"17/SALISBURY BEACH VIA AMESBURY, 20/SALISBURY BEACH, 23/BEACH EXPRESS, 54/Amesbury-Newburyport-Salisbury"
3820,2448914,1,Salisbury Beach,"17/SALISBURY BEACH VIA AMESBURY, 20/SALISBURY BEACH, 23/BEACH EXPRESS, 54/Amesbury-Newburyport-Salisbury"
3820,2448764,2,McGovern Transportation Center,"23/BEACH EXPRESS, 2/ANDOVER SQUARE VIA SOUTH BROADWAY, 99/Methuen-Lawrence-Andover to Boston"
3820,2448767,3,Buckley Transportation Center,23/BEACH EXPRESS
3823,4213086,1,The Center,12/LAWRENCE CROSSTOWN
3823,2448843,2,Lawrence Street & Park Street,12/LAWRENCE CROSSTOWN
3823,2448808,3,Broadway & Essex Street,12/LAWRENCE CROSSTOWN
3823,2448870,4,Union Street & Essex Street,"12/LAWRENCE CROSSTOWN, 5/MERRIMAC PLAZA/DANA FARBER VIA WATER STREET, 7/BEACON STREET/MOUNT VERNON"
3823,4213086,5,The Center,12/LAWRENCE CROSSTOWN
3827,2448921,1,Internal Revenue Service,26/IRS/RAYTHEON (NUKES & TAXES)
3827,2448850,2,Raytheon Corporation,26/IRS/RAYTHEON (NUKES & TAXES)
3827,2448810,3,S Broadway & Mt Vernon Street,"26/IRS/RAYTHEON (NUKES & TAXES), 2/ANDOVER SQUARE VIA SOUTH BROADWAY, 99/Methuen-Lawrence-Andover to Boston"
3827,2448919,4,Buckley Transportation Center,"10/VILLAGE MALL VIA BROADWAY, 12/LAWRENCE CROSSTOWN, 1/LAWRENCE-HAVERHILL VIA THE LOOP, 23/BEACH EXPRESS, 24/LAWRENCE-LOWELL, 26/IRS/RAYTHEON (NUKES & TAXES), 2/ANDOVER SQUARE VIA SOUTH BROADWAY, 3/NORTH ANDOVER/WOODRIDGE, 4/THE LOOP VIA PROSPECT HILL, 5/MERRIMAC PLAZA/DANA FARBER VIA WATER STREET, 6/HOLY FAMILY HOSPITAL VIA LAWRENCE GENERAL, 7/BEACON STREET/MOUNT VERNON, 8/NORTH ANDOVER MALL VIA PARKER STREET, 9/MERRIMACK COLLEGE VIA SOUTH UNION STREET/NORTH ANDOVER MALL"
3828,2448919,1,Buckley Transportation Center,"10/VILLAGE MALL VIA BROADWAY, 12/LAWRENCE CROSSTOWN, 1/LAWRENCE-HAVERHILL VIA THE LOOP, 23/BEACH EXPRESS, 24/LAWRENCE-LOWELL, 26/IRS/RAYTHEON (NUKES & TAXES), 2/ANDOVER SQUARE VIA SOUTH BROADWAY, 3/NORTH ANDOVER/WOODRIDGE, 4/THE LOOP VIA PROSPECT HILL, 5/MERRIMAC PLAZA/DANA FARBER VIA WATER STREET, 6/HOLY FAMILY HOSPITAL VIA LAWRENCE GENERAL, 7/BEACON STREET/MOUNT VERNON, 8/NORTH ANDOVER MALL VIA PARKER STREET, 9/MERRIMACK COLLEGE VIA SOUTH UNION STREET/NORTH ANDOVER MALL"
3828,2448723,2,S Broadway & Mt Vernon Street,"26/IRS/RAYTHEON (NUKES & TAXES), 2/ANDOVER SQUARE VIA SOUTH BROADWAY, 99/Methuen-Lawrence-Andover to Boston"
3828,2448850,3,Raytheon Corporation,26/IRS/RAYTHEON (NUKES & TAXES)
3828,2448921,4,Internal Revenue Service,26/IRS/RAYTHEON (NUKES & TAXES)
5193,2454469,1,Durso Ave & Winthrop Ave,"27/BEACON STREET SPECIAL, 8/NORTH ANDOVER MALL VIA PARKER STREET, 9/MERRIMACK COLLEGE VIA SOUTH UNION STREET/NORTH ANDOVER MALL"
5193,2448924,2,Andover Street & Winthrop Street,"27/BEACON STREET SPECIAL, 8/NORTH ANDOVER MALL VIA PARKER STREET"
5193,2448827,3,Andover Street & Beacon Street,"27/BEACON STREET SPECIAL, 7/BEACON STREET/MOUNT VERNON"
5193,2581576,4,Mt Vernon Street & Jefferson Street,27/BEACON STREET SPECIAL
5193,2448844,5,Clifton Street & Andover Street,27/BEACON STREET SPECIAL
5194,2448827,1,Andover Street & Beacon Street,"27/BEACON STREET SPECIAL, 7/BEACON STREET/MOUNT VERNON"
5194,2581576,2,Mt Vernon Street & Jefferson Street,27/BEACON STREET SPECIAL
5194,2448844,3,Clifton Street & Andover Street,27/BEACON STREET SPECIAL
5194,2448741,4,Andover Street & Winthrop Street,"27/BEACON STREET SPECIAL, 8/NORTH ANDOVER MALL VIA PARKER STREET"
5194,2454475,5,Durso Ave & Winthrop Ave,"27/BEACON STREET SPECIAL, 8/NORTH ANDOVER MALL VIA PARKER STREET, 9/MERRIMACK COLLEGE VIA SOUTH UNION STREET/NORTH ANDOVER MALL"
5950,2448909,1,AHEPA Apartments,"18/RIVERSIDE/GROVELAND, 22/BUTTONWOODS EXPRESS"
5950,2448738,2,Rivers Edge Plaza - Building 19,"18/RIVERSIDE/GROVELAND, 22/BUTTONWOODS EXPRESS"
5951,2448738,1,Rivers Edge Plaza - Building 19,"18/RIVERSIDE/GROVELAND, 22/BUTTONWOODS EXPRESS"
5951,2448909,2,AHEPA Apartments,"18/RIVERSIDE/GROVELAND, 22/BUTTONWOODS EXPRESS"
6028,2448914,1,Salisbury Beach,"17/SALISBURY BEACH VIA AMESBURY, 20/SALISBURY BEACH, 23/BEACH EXPRESS, 54/Amesbury-Newburyport-Salisbury"
6028,2454699,2,Salisbury Center,"17/SALISBURY BEACH VIA AMESBURY, 20/SALISBURY BEACH, 54/Amesbury-Newburyport-Salisbury"
6028,4212234,3,Elm Street & Lafayette Street,17/SALISBURY BEACH VIA AMESBURY
6028,2448780,4,Nicholas J. Costello Transportation Center,"17/SALISBURY BEACH VIA AMESBURY, 19/AMESBURY/COSTELLO, 23/BEACH EXPRESS, 51/Haverhill-Amesbury, 54/Amesbury-Newburyport-Salisbury"
6028,3673333,5,Route 110 & Main St,"17/SALISBURY BEACH VIA AMESBURY, 51/Haverhill-Amesbury"
6028,2448758,6,Merri Village,"17/SALISBURY BEACH VIA AMESBURY, 51/Haverhill-Amesbury"
6028,2448855,7,NECC Haverhill Campus,"17/SALISBURY BEACH VIA AMESBURY, 51/Haverhill-Amesbury"
6028,2448845,8,Washington Square Transit Center,"13/STATELINE PLAZA/PLAISTOW, 14/LAWRENCE-HAVERHILL VIA AMAZON/WARD HILL, 15/WESTGATE PLAZA VIA HILLDALE, 16/WESTGATE PLAZA VIA WASHINGTON STREET, 17/SALISBURY BEACH VIA AMESBURY, 18/RIVERSIDE/GROVELAND, 1/LAWRENCE-HAVERHILL VIA THE LOOP, 23/BEACH EXPRESS, 51/Haverhill-Amesbury"
6029,2448914,1,Salisbury Beach,"17/SALISBURY BEACH VIA AMESBURY, 20/SALISBURY BEACH, 23/BEACH EXPRESS, 54/Amesbury-Newburyport-Salisbury"
6029,2454699,2,Salisbury Center,"17/SALISBURY BEACH VIA AMESBURY, 20/SALISBURY BEACH, 54/Amesbury-Newburyport-Salisbury"
6029,4212234,3,Elm Street & Lafayette Street,17/SALISBURY BEACH VIA AMESBURY
6029,2448780,4,Nicholas J. Costello Transportation Center,"17/SALISBURY BEACH VIA AMESBURY, 19/AMESBURY/COSTELLO, 23/BEACH EXPRESS, 51/Haverhill-Amesbury, 54/Amesbury-Newburyport-Salisbury"
6029,3673333,5,Route 110 & Main St,"17/SALISBURY BEACH VIA AMESBURY, 51/Haverhill-Amesbury"
6029,2448758,6,Merri Village,"17/SALISBURY BEACH VIA AMESBURY, 51/Haverhill-Amesbury"
6029,2448855,7,NECC Haverhill Campus,"17/SALISBURY BEACH VIA AMESBURY, 51/Haverhill-Amesbury"
6029,2448845,8,Washington Square Transit Center,"13/STATELINE PLAZA/PLAISTOW, 14/LAWRENCE-HAVERHILL VIA AMAZON/WARD HILL, 15/WESTGATE PLAZA VIA HILLDALE, 16/WESTGATE PLAZA VIA WASHINGTON STREET, 17/SALISBURY BEACH VIA AMESBURY, 18/RIVERSIDE/GROVELAND, 1/LAWRENCE-HAVERHILL VIA THE LOOP, 23/BEACH EXPRESS, 51/Haverhill-Amesbury"
6030,2448845,1,Washington Square Transit Center,"13/STATELINE PLAZA/PLAISTOW, 14/LAWRENCE-HAVERHILL VIA AMAZON/WARD HILL, 15/WESTGATE PLAZA VIA HILLDALE, 16/WESTGATE PLAZA VIA WASHINGTON STREET, 17/SALISBURY BEACH VIA AMESBURY, 18/RIVERSIDE/GROVELAND, 1/LAWRENCE-HAVERHILL VIA THE LOOP, 23/BEACH EXPRESS, 51/Haverhill-Amesbury"
6030,2448855,2,NECC Haverhill Campus,"17/SALISBURY BEACH VIA AMESBURY, 51/Haverhill-Amesbury"
6030,2448758,3,Merri Village,"17/SALISBURY BEACH VIA AMESBURY, 51/Haverhill-Amesbury"
6030,3673333,4,Route 110 & Main St,"17/SALISBURY BEACH VIA AMESBURY, 51/Haverhill-Amesbury"
6030,2448780,5,Nicholas J. Costello Transportation Center,"17/SALISBURY BEACH VIA AMESBURY, 19/AMESBURY/COSTELLO, 23/BEACH EXPRESS, 51/Haverhill-Amesbury, 54/Amesbury-Newburyport-Salisbury"
6030,2586331,6,Elm Street & Lafayette Street,"17/SALISBURY BEACH VIA AMESBURY, 54/Amesbury-Newburyport-Salisbury"
6030,2448914,7,Salisbury Beach,"17/SALISBURY BEACH VIA AMESBURY, 20/SALISBURY BEACH, 23/BEACH EXPRESS, 54/Amesbury-Newburyport-Salisbury"
6031,2448845,1,Washington Square Transit Center,"13/STATELINE PLAZA/PLAISTOW, 14/LAWRENCE-HAVERHILL VIA AMAZON/WARD HILL, 15/WESTGATE PLAZA VIA HILLDALE, 16/WESTGATE PLAZA VIA WASHINGTON STREET, 17/SALISBURY BEACH VIA AMESBURY, 18/RIVERSIDE/GROVELAND, 1/LAWRENCE-HAVERHILL VIA THE LOOP, 23/BEACH EXPRESS, 51/Haverhill-Amesbury"
6031,2448855,2,NECC Haverhill Campus,"17/SALISBURY BEACH VIA AMESBURY, 51/Haverhill-Amesbury"
6031,2448758,3,Merri Village,"17/SALISBURY BEACH VIA AMESBURY, 51/Haverhill-Amesbury"
6031,3673333,4,Route 110 & Main St,"17/SALISBURY BEACH VIA AMESBURY, 51/Haverhill-Amesbury"
6031,2448780,5,Nicholas J. Costello Transportation Center,"17/SALISBURY BEACH VIA AMESBURY, 19/AMESBURY/COSTELLO, 23/BEACH EXPRESS, 51/Haverhill-Amesbury, 54/Amesbury-Newburyport-Salisbury"
6031,2586331,6,Elm Street & Lafayette Street,"17/SALISBURY BEACH VIA AMESBURY, 54/Amesbury-Newburyport-Salisbury"
6031,2448914,7,Salisbury Beach,"17/SALISBURY BEACH VIA AMESBURY, 20/SALISBURY BEACH, 23/BEACH EXPRESS, 54/Amesbury-Newburyport-Salisbury"
6032,2448780,1,Nicholas J. Costello Transportation Center,"17/SALISBURY BEACH VIA AMESBURY, 19/AMESBURY/COSTELLO, 23/BEACH EXPRESS, 51/Haverhill-Amesbury, 54/Amesbury-Newburyport-Salisbury"
6032,2586285,2,Carriagetown Marketplace - Stop & Shop,"19/AMESBURY/COSTELLO, 54/Amesbury-Newburyport-Salisbury"
6032,2448833,3,Market Basket Plaza,"19/AMESBURY/COSTELLO, 54/Amesbury-Newburyport-Salisbury, 57/Newburyport Shuttle"
6032,4244552,4,Wallace Bashaw Junior Way at Anna Jacques Hospital,19/AMESBURY/COSTELLO
6032,2448916,5,Heritage House,"19/AMESBURY/COSTELLO, 20/SALISBURY BEACH, 54/Amesbury-Newburyport-Salisbury, 57/Newburyport Shuttle"
6032,2448754,6,Newburyport MBTA Station,"11/LAWRENCE-HAVERHILL-NEWBURYPORT LIMITED, 19/AMESBURY/COSTELLO, 20/SALISBURY BEACH, 53/Newburyport Summer Shuttle, 54/Amesbury-Newburyport-Salisbury"
6033,2448780,1,Nicholas J. Costello Transportation Center,"17/SALISBURY BEACH VIA AMESBURY, 19/AMESBURY/COSTELLO, 23/BEACH EXPRESS, 51/Haverhill-Amesbury, 54/Amesbury-Newburyport-Salisbury"
6033,2586285,2,Carriagetown Marketplace - Stop & Shop,"19/AMESBURY/COSTELLO, 54/Amesbury-Newburyport-Salisbury"
6033,2448833,3,Market Basket Plaza,"19/AMESBURY/COSTELLO, 54/Amesbury-Newburyport-Salisbury, 57/Newburyport Shuttle"
6033,4244552,4,Wallace Bashaw Junior Way at Anna Jacques Hospital,19/AMESBURY/COSTELLO
6033,2448916,5,Heritage House,"19/AMESBURY/COSTELLO, 20/SALISBURY BEACH, 54/Amesbury-Newburyport-Salisbury, 57/Newburyport Shuttle"
6033,2448754,6,Newburyport MBTA Station,"11/LAWRENCE-HAVERHILL-NEWBURYPORT LIMITED, 19/AMESBURY/COSTELLO, 20/SALISBURY BEACH, 53/Newburyport Summer Shuttle, 54/Amesbury-Newburyport-Salisbury"
6034,2448754,1,Newburyport MBTA Station,"11/LAWRENCE-HAVERHILL-NEWBURYPORT LIMITED, 19/AMESBURY/COSTELLO, 20/SALISBURY BEACH, 53/Newburyport Summer Shuttle, 54/Amesbury-Newburyport-Salisbury"
6034,2448862,2,State Street (Library),"19/AMESBURY/COSTELLO, 20/SALISBURY BEACH, 53/Newburyport Summer Shuttle, 54/Amesbury-Newburyport-Salisbury, 57/Newburyport Shuttle"
6034,2448916,3,Heritage House,"19/AMESBURY/COSTELLO, 20/SALISBURY BEACH, 54/Amesbury-Newburyport-Salisbury, 57/Newburyport Shuttle"
6034,4244556,4,Wallace Bashaw Junior Way A/C Anna Jaques Hospital,19/AMESBURY/COSTELLO
6034,2448833,5,Market Basket Plaza,"19/AMESBURY/COSTELLO, 54/Amesbury-Newburyport-Salisbury, 57/Newburyport Shuttle"
6034,2586285,6,Carriagetown Marketplace - Stop & Shop,"19/AMESBURY/COSTELLO, 54/Amesbury-Newburyport-Salisbury"
6034,2448780,7,Nicholas J. Costello Transportation Center,"17/SALISBURY BEACH VIA AMESBURY, 19/AMESBURY/COSTELLO, 23/BEACH EXPRESS, 51/Haverhill-Amesbury, 54/Amesbury-Newburyport-Salisbury"
6035,2448754,1,Newburyport MBTA Station,"11/LAWRENCE-HAVERHILL-NEWBURYPORT LIMITED, 19/AMESBURY/COSTELLO, 20/SALISBURY BEACH, 53/Newburyport Summer Shuttle, 54/Amesbury-Newburyport-Salisbury"
6035,2448862,2,State Street (Library),"19/AMESBURY/COSTELLO, 20/SALISBURY BEACH, 53/Newburyport Summer Shuttle, 54/Amesbury-Newburyport-Salisbury, 57/Newburyport Shuttle"
6035,2448916,3,Heritage House,"19/AMESBURY/COSTELLO, 20/SALISBURY BEACH, 54/Amesbury-Newburyport-Salisbury, 57/Newburyport Shuttle"
6035,4244556,4,Wallace Bashaw Junior Way A/C Anna Jaques Hospital,19/AMESBURY/COSTELLO
6035,2448833,5,Market Basket Plaza,"19/AMESBURY/COSTELLO, 54/Amesbury-Newburyport-Salisbury, 57/Newburyport Shuttle"
6035,2586285,6,Carriagetown Marketplace - Stop & Shop,"19/AMESBURY/COSTELLO, 54/Amesbury-Newburyport-Salisbury"
6035,2448780,7,Nicholas J. Costello Transportation Center,"17/SALISBURY BEACH VIA AMESBURY, 19/AMESBURY/COSTELLO, 23/BEACH EXPRESS, 51/Haverhill-Amesbury, 54/Amesbury-Newburyport-Salisbury"
6036,2448914,1,Salisbury Beach,"17/SALISBURY BEACH VIA AMESBURY, 20/SALISBURY BEACH, 23/BEACH EXPRESS, 54/Amesbury-Newburyport-Salisbury"
6036,2454699,2,Salisbury Center,"17/SALISBURY BEACH VIA AMESBURY, 20/SALISBURY BEACH, 54/Amesbury-Newburyport-Salisbury"
6036,2448862,3,State Street (Library),"19/AMESBURY/COSTELLO, 20/SALISBURY BEACH, 53/Newburyport Summer Shuttle, 54/Amesbury-Newburyport-Salisbury, 57/Newburyport Shuttle"
6036,2448916,4,Heritage House,"19/AMESBURY/COSTELLO, 20/SALISBURY BEACH, 54/Amesbury-Newburyport-Salisbury, 57/Newburyport Shuttle"
6036,2448754,5,Newburyport MBTA Station,"11/LAWRENCE-HAVERHILL-NEWBURYPORT LIMITED, 19/AMESBURY/COSTELLO, 20/SALISBURY BEACH, 53/Newburyport Summer Shuttle, 54/Amesbury-Newburyport-Salisbury"
6037,2448914,1,Salisbury Beach,"17/SALISBURY BEACH VIA AMESBURY, 20/SALISBURY BEACH, 23/BEACH EXPRESS, 54/Amesbury-Newburyport-Salisbury"
6037,2454699,2,Salisbury Center,"17/SALISBURY BEACH VIA AMESBURY, 20/SALISBURY BEACH, 54/Amesbury-Newburyport-Salisbury"
6037,2448862,3,State Street (Library),"19/AMESBURY/COSTELLO, 20/SALISBURY BEACH, 53/Newburyport Summer Shuttle, 54/Amesbury-Newburyport-Salisbury, 57/Newburyport Shuttle"
6037,2448916,4,Heritage House,"19/AMESBURY/COSTELLO, 20/SALISBURY BEACH, 54/Amesbury-Newburyport-Salisbury, 57/Newburyport Shuttle"
6037,2448754,5,Newburyport MBTA Station,"11/LAWRENCE-HAVERHILL-NEWBURYPORT LIMITED, 19/AMESBURY/COSTELLO, 20/SALISBURY BEACH, 53/Newburyport Summer Shuttle, 54/Amesbury-Newburyport-Salisbury"
6038,2448754,1,Newburyport MBTA Station,"11/LAWRENCE-HAVERHILL-NEWBURYPORT LIMITED, 19/AMESBURY/COSTELLO, 20/SALISBURY BEACH, 53/Newburyport Summer Shuttle, 54/Amesbury-Newburyport-Salisbury"
6038,2616260,2,Water Street & Center Street,"19/AMESBURY/COSTELLO, 20/SALISBURY BEACH, 57/Newburyport Shuttle"
6038,4210446,3,Salisbury Center,20/SALISBURY BEACH
6038,2448914,4,Salisbury Beach,"17/SALISBURY BEACH VIA AMESBURY, 20/SALISBURY BEACH, 23/BEACH EXPRESS, 54/Amesbury-Newburyport-Salisbury"
6039,2448754,1,Newburyport MBTA Station,"11/LAWRENCE-HAVERHILL-NEWBURYPORT LIMITED, 19/AMESBURY/COSTELLO, 20/SALISBURY BEACH, 53/Newburyport Summer Shuttle, 54/Amesbury-Newburyport-Salisbury"
6039,2616260,2,Water Street & Center Street,"19/AMESBURY/COSTELLO, 20/SALISBURY BEACH, 57/Newburyport Shuttle"
6039,4210446,3,Salisbury Center,20/SALISBURY BEACH
6039,2448914,4,Salisbury Beach,"17/SALISBURY BEACH VIA AMESBURY, 20/SALISBURY BEACH, 23/BEACH EXPRESS, 54/Amesbury-Newburyport-Salisbury"
6534,2579602,1,Plaistow Walmart,13/STATELINE PLAZA/PLAISTOW
6534,2579603,2,Plaistow Market Basket,13/STATELINE PLAZA/PLAISTOW
6534,2448766,3,Stateline Plaza - TJ Maxx,13/STATELINE PLAZA/PLAISTOW
6534,2448867,4,Monument Square,13/STATELINE PLAZA/PLAISTOW
6534,2448845,5,Washington Square Transit Center,"13/STATELINE PLAZA/PLAISTOW, 14/LAWRENCE-HAVERHILL VIA AMAZON/WARD HILL, 15/WESTGATE PLAZA VIA HILLDALE, 16/WESTGATE PLAZA VIA WASHINGTON STREET, 17/SALISBURY BEACH VIA AMESBURY, 18/RIVERSIDE/GROVELAND, 1/LAWRENCE-HAVERHILL VIA THE LOOP, 23/BEACH EXPRESS, 51/Haverhill-Amesbury"
6535,2448845,1,Washington Square Transit Center,"13/STATELINE PLAZA/PLAISTOW, 14/LAWRENCE-HAVERHILL VIA AMAZON/WARD HILL, 15/WESTGATE PLAZA VIA HILLDALE, 16/WESTGATE PLAZA VIA WASHINGTON STREET, 17/SALISBURY BEACH VIA AMESBURY, 18/RIVERSIDE/GROVELAND, 1/LAWRENCE-HAVERHILL VIA THE LOOP, 23/BEACH EXPRESS, 51/Haverhill-Amesbury"
6535,2448842,2,Monument Square,13/STATELINE PLAZA/PLAISTOW
6535,2448825,3,North Avenue & Gas Company Road,13/STATELINE PLAZA/PLAISTOW
6535,2448766,4,Stateline Plaza - TJ Maxx,13/STATELINE PLAZA/PLAISTOW
6535,2579602,5,Plaistow Walmart,13/STATELINE PLAZA/PLAISTOW
6536,2448845,1,Washington Square Transit Center,"13/STATELINE PLAZA/PLAISTOW, 14/LAWRENCE-HAVERHILL VIA AMAZON/WARD HILL, 15/WESTGATE PLAZA VIA HILLDALE, 16/WESTGATE PLAZA VIA WASHINGTON STREET, 17/SALISBURY BEACH VIA AMESBURY, 18/RIVERSIDE/GROVELAND, 1/LAWRENCE-HAVERHILL VIA THE LOOP, 23/BEACH EXPRESS, 51/Haverhill-Amesbury"
6536,2448809,2,River Street & Lowell Ave,"11/LAWRENCE-HAVERHILL-NEWBURYPORT LIMITED, 1/LAWRENCE-HAVERHILL VIA THE LOOP"
6536,4212790,3,The Loop,"1/LAWRENCE-HAVERHILL VIA THE LOOP, 4/THE LOOP VIA PROSPECT HILL"
6536,2448751,4,Methuen Plaza - Walmart,"1/LAWRENCE-HAVERHILL VIA THE LOOP, 4/THE LOOP VIA PROSPECT HILL"
6536,2448804,5,Target Plaza,"1/LAWRENCE-HAVERHILL VIA THE LOOP, 4/THE LOOP VIA PROSPECT HILL"
6536,4247392,6,Jackson and Swan Street,1/LAWRENCE-HAVERHILL VIA THE LOOP
6536,2448882,7,McGovern Transportation Center,"10/VILLAGE MALL VIA BROADWAY, 11/LAWRENCE-HAVERHILL-NEWBURYPORT LIMITED, 14/LAWRENCE-HAVERHILL VIA AMAZON/WARD HILL, 1/LAWRENCE-HAVERHILL VIA THE LOOP, 23/BEACH EXPRESS, 24/LAWRENCE-LOWELL, 2/ANDOVER SQUARE VIA SOUTH BROADWAY, 3/NORTH ANDOVER/WOODRIDGE, 4/THE LOOP VIA PROSPECT HILL, 5/MERRIMAC PLAZA/DANA FARBER VIA WATER STREET, 6/HOLY FAMILY HOSPITAL VIA LAWRENCE GENERAL, 7/BEACON STREET/MOUNT VERNON, 8/NORTH ANDOVER MALL VIA PARKER STREET, 9/MERRIMACK COLLEGE VIA SOUTH UNION STREET/NORTH ANDOVER MALL"
6537,2448882,1,McGovern Transportation Center,"10/VILLAGE MALL VIA BROADWAY, 11/LAWRENCE-HAVERHILL-NEWBURYPORT LIMITED, 14/LAWRENCE-HAVERHILL VIA AMAZON/WARD HILL, 1/LAWRENCE-HAVERHILL VIA THE LOOP, 23/BEACH EXPRESS, 24/LAWRENCE-LOWELL, 2/ANDOVER SQUARE VIA SOUTH BROADWAY, 3/NORTH ANDOVER/WOODRIDGE, 4/THE LOOP VIA PROSPECT HILL, 5/MERRIMAC PLAZA/DANA FARBER VIA WATER STREET, 6/HOLY FAMILY HOSPITAL VIA LAWRENCE GENERAL, 7/BEACON STREET/MOUNT VERNON, 8/NORTH ANDOVER MALL VIA PARKER STREET, 9/MERRIMACK COLLEGE VIA SOUTH UNION STREET/NORTH ANDOVER MALL"
6537,2448765,2,NECC Lawrence Campus,"10/VILLAGE MALL VIA BROADWAY, 1/LAWRENCE-HAVERHILL VIA THE LOOP, 56/NECC Express"
6537,4247391,3,Jackson and Swan,1/LAWRENCE-HAVERHILL VIA THE LOOP
6537,4212790,4,The Loop,"1/LAWRENCE-HAVERHILL VIA THE LOOP, 4/THE LOOP VIA PROSPECT HILL"
6537,2448751,5,Methuen Plaza - Walmart,"1/LAWRENCE-HAVERHILL VIA THE LOOP, 4/THE LOOP VIA PROSPECT HILL"
6537,2448804,6,Target Plaza,"1/LAWRENCE-HAVERHILL VIA THE LOOP, 4/THE LOOP VIA PROSPECT HILL"
6537,2448782,7,River Street & Lowell Ave,"11/LAWRENCE-HAVERHILL-NEWBURYPORT LIMITED, 1/LAWRENCE-HAVERHILL VIA THE LOOP"
6537,2448845,8,Washington Square Transit Center,"13/STATELINE PLAZA/PLAISTOW, 14/LAWRENCE-HAVERHILL VIA AMAZON/WARD HILL, 15/WESTGATE PLAZA VIA HILLDALE, 16/WESTGATE PLAZA VIA WASHINGTON STREET, 17/SALISBURY BEACH VIA AMESBURY, 18/RIVERSIDE/GROVELAND, 1/LAWRENCE-HAVERHILL VIA THE LOOP, 23/BEACH EXPRESS, 51/Haverhill-Amesbury"
6538,2448866,1,Robert B. Kennedy Transfer Center,24/LAWRENCE-LOWELL
6538,2594327,2,Merrimack Avenue & Intervale Avenue - Lenzis Bakery,24/LAWRENCE-LOWELL
6538,2448785,3,Merrimack Plaza - Rite-Aid Pharmacy,"24/LAWRENCE-LOWELL, 5/MERRIMAC PLAZA/DANA FARBER VIA WATER STREET"
6538,4247441,4,NECC Common Street HUB,"24/LAWRENCE-LOWELL, 5/MERRIMAC PLAZA/DANA FARBER VIA WATER STREET"
6538,2448882,5,McGovern Transportation Center,"10/VILLAGE MALL VIA BROADWAY, 11/LAWRENCE-HAVERHILL-NEWBURYPORT LIMITED, 14/LAWRENCE-HAVERHILL VIA AMAZON/WARD HILL, 1/LAWRENCE-HAVERHILL VIA THE LOOP, 23/BEACH EXPRESS, 24/LAWRENCE-LOWELL, 2/ANDOVER SQUARE VIA SOUTH BROADWAY, 3/NORTH ANDOVER/WOODRIDGE, 4/THE LOOP VIA PROSPECT HILL, 5/MERRIMAC PLAZA/DANA FARBER VIA WATER STREET, 6/HOLY FAMILY HOSPITAL VIA LAWRENCE GENERAL, 7/BEACON STREET/MOUNT VERNON, 8/NORTH ANDOVER MALL VIA PARKER STREET, 9/MERRIMACK COLLEGE VIA SOUTH UNION STREET/NORTH ANDOVER MALL"
6540,2448764,1,McGovern Transportation Center,"23/BEACH EXPRESS, 2/ANDOVER SQUARE VIA SOUTH BROADWAY, 99/Methuen-Lawrence-Andover to Boston"
6540,2448723,2,S Broadway & Mt Vernon Street,"26/IRS/RAYTHEON (NUKES & TAXES), 2/ANDOVER SQUARE VIA SOUTH BROADWAY, 99/Methuen-Lawrence-Andover to Boston"
6540,2448813,3,Shawsheen Square,2/ANDOVER SQUARE VIA SOUTH BROADWAY
6540,2448891,4,Main Street & Central Street,"21/ANDOVER SHUTTLE, 2/ANDOVER SQUARE VIA SOUTH BROADWAY"
6540,2448849,5,Main Street & School Street,2/ANDOVER SQUARE VIA SOUTH BROADWAY
6541,2448849,1,Main Street & School Street,2/ANDOVER SQUARE VIA SOUTH BROADWAY
6541,2448890,2,Andover Square,2/ANDOVER SQUARE VIA SOUTH BROADWAY
6541,2448724,3,Shawsheen Square,"2/ANDOVER SQUARE VIA SOUTH BROADWAY, 99/Methuen-Lawrence-Andover to Boston"
6541,2448810,4,S Broadway & Mt Vernon Street,"26/IRS/RAYTHEON (NUKES & TAXES), 2/ANDOVER SQUARE VIA SOUTH BROADWAY, 99/Methuen-Lawrence-Andover to Boston"
6541,2448882,5,McGovern Transportation Center,"10/VILLAGE MALL VIA BROADWAY, 11/LAWRENCE-HAVERHILL-NEWBURYPORT LIMITED, 14/LAWRENCE-HAVERHILL VIA AMAZON/WARD HILL, 1/LAWRENCE-HAVERHILL VIA THE LOOP, 23/BEACH EXPRESS, 24/LAWRENCE-LOWELL, 2/ANDOVER SQUARE VIA SOUTH BROADWAY, 3/NORTH ANDOVER/WOODRIDGE, 4/THE LOOP VIA PROSPECT HILL, 5/MERRIMAC PLAZA/DANA FARBER VIA WATER STREET, 6/HOLY FAMILY HOSPITAL VIA LAWRENCE GENERAL, 7/BEACON STREET/MOUNT VERNON, 8/NORTH ANDOVER MALL VIA PARKER STREET, 9/MERRIMACK COLLEGE VIA SOUTH UNION STREET/NORTH ANDOVER MALL"
6542,2448882,1,McGovern Transportation Center,"10/VILLAGE MALL VIA BROADWAY, 11/LAWRENCE-HAVERHILL-NEWBURYPORT LIMITED, 14/LAWRENCE-HAVERHILL VIA AMAZON/WARD HILL, 1/LAWRENCE-HAVERHILL VIA THE LOOP, 23/BEACH EXPRESS, 24/LAWRENCE-LOWELL, 2/ANDOVER SQUARE VIA SOUTH BROADWAY, 3/NORTH ANDOVER/WOODRIDGE, 4/THE LOOP VIA PROSPECT HILL, 5/MERRIMAC PLAZA/DANA FARBER VIA WATER STREET, 6/HOLY FAMILY HOSPITAL VIA LAWRENCE GENERAL, 7/BEACON STREET/MOUNT VERNON, 8/NORTH ANDOVER MALL VIA PARKER STREET, 9/MERRIMACK COLLEGE VIA SOUTH UNION STREET/NORTH ANDOVER MALL"
6542,2452472,2,Hampshire Street & Essex Street,"10/VILLAGE MALL VIA BROADWAY, 1/LAWRENCE-HAVERHILL VIA THE LOOP, 23/BEACH EXPRESS, 24/LAWRENCE-LOWELL, 3/NORTH ANDOVER/WOODRIDGE, 4/THE LOOP VIA PROSPECT HILL, 9/MERRIMACK COLLEGE VIA SOUTH UNION STREET/NORTH ANDOVER MALL"
6542,2448830,3,Methuen Square,10/VILLAGE MALL VIA BROADWAY
6542,2448828,4,Mystic Street,10/VILLAGE MALL VIA BROADWAY
6542,2448886,5,Village Plaza - Dollar Tree,10/VILLAGE MALL VIA BROADWAY
6543,2448886,1,Village Plaza - Dollar Tree,10/VILLAGE MALL VIA BROADWAY
6543,2582998,2,Methuen Square,"10/VILLAGE MALL VIA BROADWAY, 99/Methuen-Lawrence-Andover to Boston"
6543,2448765,3,NECC Lawrence Campus,"10/VILLAGE MALL VIA BROADWAY, 1/LAWRENCE-HAVERHILL VIA THE LOOP, 56/NECC Express"
6543,2448882,4,McGovern Transportation Center,"10/VILLAGE MALL VIA BROADWAY, 11/LAWRENCE-HAVERHILL-NEWBURYPORT LIMITED, 14/LAWRENCE-HAVERHILL VIA AMAZON/WARD HILL, 1/LAWRENCE-HAVERHILL VIA THE LOOP, 23/BEACH EXPRESS, 24/LAWRENCE-LOWELL, 2/ANDOVER SQUARE VIA SOUTH BROADWAY, 3/NORTH ANDOVER/WOODRIDGE, 4/THE LOOP VIA PROSPECT HILL, 5/MERRIMAC PLAZA/DANA FARBER VIA WATER STREET, 6/HOLY FAMILY HOSPITAL VIA LAWRENCE GENERAL, 7/BEACON STREET/MOUNT VERNON, 8/NORTH ANDOVER MALL VIA PARKER STREET, 9/MERRIMACK COLLEGE VIA SOUTH UNION STREET/NORTH ANDOVER MALL"
6546,2448914,1,Salisbury Beach,"17/SALISBURY BEACH VIA AMESBURY, 20/SALISBURY BEACH, 23/BEACH EXPRESS, 54/Amesbury-Newburyport-Salisbury"
6546,4212234,2,Elm Street & Lafayette Street,17/SALISBURY BEACH VIA AMESBURY
6546,2448780,3,Nicholas J. Costello Transportation Center,"17/SALISBURY BEACH VIA AMESBURY, 19/AMESBURY/COSTELLO, 23/BEACH EXPRESS, 51/Haverhill-Amesbury, 54/Amesbury-Newburyport-Salisbury"
6546,3673333,4,Route 110 & Main St,"17/SALISBURY BEACH VIA AMESBURY, 51/Haverhill-Amesbury"
6546,2448758,5,Merri Village,"17/SALISBURY BEACH VIA AMESBURY, 51/Haverhill-Amesbury"
6546,2448845,6,Washington Square Transit Center,"13/STATELINE PLAZA/PLAISTOW, 14/LAWRENCE-HAVERHILL VIA AMAZON/WARD HILL, 15/WESTGATE PLAZA VIA HILLDALE, 16/WESTGATE PLAZA VIA WASHINGTON STREET, 17/SALISBURY BEACH VIA AMESBURY, 18/RIVERSIDE/GROVELAND, 1/LAWRENCE-HAVERHILL VIA THE LOOP, 23/BEACH EXPRESS, 51/Haverhill-Amesbury"
6547,2448845,1,Washington Square Transit Center,"13/STATELINE PLAZA/PLAISTOW, 14/LAWRENCE-HAVERHILL VIA AMAZON/WARD HILL, 15/WESTGATE PLAZA VIA HILLDALE, 16/WESTGATE PLAZA VIA WASHINGTON STREET, 17/SALISBURY BEACH VIA AMESBURY, 18/RIVERSIDE/GROVELAND, 1/LAWRENCE-HAVERHILL VIA THE LOOP, 23/BEACH EXPRESS, 51/Haverhill-Amesbury"
6547,2448758,2,Merri Village,"17/SALISBURY BEACH VIA AMESBURY, 51/Haverhill-Amesbury"
6547,3673333,3,Route 110 & Main St,"17/SALISBURY BEACH VIA AMESBURY, 51/Haverhill-Amesbury"
6547,2448780,4,Nicholas J. Costello Transportation Center,"17/SALISBURY BEACH VIA AMESBURY, 19/AMESBURY/COSTELLO, 23/BEACH EXPRESS, 51/Haverhill-Amesbury, 54/Amesbury-Newburyport-Salisbury"
6547,2586331,5,Elm Street & Lafayette Street,"17/SALISBURY BEACH VIA AMESBURY, 54/Amesbury-Newburyport-Salisbury"
6547,2448914,6,Salisbury Beach,"17/SALISBURY BEACH VIA AMESBURY, 20/SALISBURY BEACH, 23/BEACH EXPRESS, 54/Amesbury-Newburyport-Salisbury"
6992,2448767,1,Buckley Transportation Center,23/BEACH EXPRESS
6992,2448764,2,McGovern Transportation Center,"23/BEACH EXPRESS, 2/ANDOVER SQUARE VIA SOUTH BROADWAY, 99/Methuen-Lawrence-Andover to Boston"
6992,2448914,3,Salisbury Beach,"17/SALISBURY BEACH VIA AMESBURY, 20/SALISBURY BEACH, 23/BEACH EXPRESS, 54/Amesbury-Newburyport-Salisbury"
6993,2448914,1,Salisbury Beach,"17/SALISBURY BEACH VIA AMESBURY, 20/SALISBURY BEACH, 23/BEACH EXPRESS, 54/Amesbury-Newburyport-Salisbury"
6993,2448764,2,McGovern Transportation Center,"23/BEACH EXPRESS, 2/ANDOVER SQUARE VIA SOUTH BROADWAY, 99/Methuen-Lawrence-Andover to Boston"
6993,2448767,3,Buckley Transportation Center,23/BEACH EXPRESS
7196,2448751,1,Methuen Plaza - Walmart,"1/LAWRENCE-HAVERHILL VIA THE LOOP, 4/THE LOOP VIA PROSPECT HILL"
7196,2448804,2,Target Plaza,"1/LAWRENCE-HAVERHILL VIA THE LOOP, 4/THE LOOP VIA PROSPECT HILL"
7196,4247407,3,Swan & Prospect,4/THE LOOP VIA PROSPECT HILL
7196,4247409,4,Ferry Street & E Haverhill Street,4/THE LOOP VIA PROSPECT HILL
7196,2448882,5,McGovern Transportation Center,"10/VILLAGE MALL VIA BROADWAY, 11/LAWRENCE-HAVERHILL-NEWBURYPORT LIMITED, 14/LAWRENCE-HAVERHILL VIA AMAZON/WARD HILL, 1/LAWRENCE-HAVERHILL VIA THE LOOP, 23/BEACH EXPRESS, 24/LAWRENCE-LOWELL, 2/ANDOVER SQUARE VIA SOUTH BROADWAY, 3/NORTH ANDOVER/WOODRIDGE, 4/THE LOOP VIA PROSPECT HILL, 5/MERRIMAC PLAZA/DANA FARBER VIA WATER STREET, 6/HOLY FAMILY HOSPITAL VIA LAWRENCE GENERAL, 7/BEACON STREET/MOUNT VERNON, 8/NORTH ANDOVER MALL VIA PARKER STREET, 9/MERRIMACK COLLEGE VIA SOUTH UNION STREET/NORTH ANDOVER MALL"
7197,2448882,1,McGovern Transportation Center,"10/VILLAGE MALL VIA BROADWAY, 11/LAWRENCE-HAVERHILL-NEWBURYPORT LIMITED, 14/LAWRENCE-HAVERHILL VIA AMAZON/WARD HILL, 1/LAWRENCE-HAVERHILL VIA THE LOOP, 23/BEACH EXPRESS, 24/LAWRENCE-LOWELL, 2/ANDOVER SQUARE VIA SOUTH BROADWAY, 3/NORTH ANDOVER/WOODRIDGE, 4/THE LOOP VIA PROSPECT HILL, 5/MERRIMAC PLAZA/DANA FARBER VIA WATER STREET, 6/HOLY FAMILY HOSPITAL VIA LAWRENCE GENERAL, 7/BEACON STREET/MOUNT VERNON, 8/NORTH ANDOVER MALL VIA PARKER STREET, 9/MERRIMACK COLLEGE VIA SOUTH UNION STREET/NORTH ANDOVER MALL"
7197,2586358,2,Ferry Street & E Haverhill Street,4/THE LOOP VIA PROSPECT HILL
7197,4210441,3,Swan and Prospect,4/THE LOOP VIA PROSPECT HILL
7197,2448859,4,The Loop,"23/BEACH EXPRESS, 4/THE LOOP VIA PROSPECT HILL"
7197,2448751,5,Methuen Plaza - Walmart,"1/LAWRENCE-HAVERHILL VIA THE LOOP, 4/THE LOOP VIA PROSPECT HILL"
7198,2594155,1,Pond Street - CVS,"11/LAWRENCE-HAVERHILL-NEWBURYPORT LIMITED, 19/AMESBURY/COSTELLO, 20/SALISBURY BEACH, 54/Amesbury-Newburyport-Salisbury"
7198,2448754,2,Newburyport MBTA Station,"11/LAWRENCE-HAVERHILL-NEWBURYPORT LIMITED, 19/AMESBURY/COSTELLO, 20/SALISBURY BEACH, 53/Newburyport Summer Shuttle, 54/Amesbury-Newburyport-Salisbury"
7198,4247484,3,Storey Ave & Low Street,11/LAWRENCE-HAVERHILL-NEWBURYPORT LIMITED
7198,4247474,4,Maple & Main Street,11/LAWRENCE-HAVERHILL-NEWBURYPORT LIMITED
7198,3880690,5,Rivers Edge Plaza - Entrance,11/LAWRENCE-HAVERHILL-NEWBURYPORT LIMITED
7198,4247548,6,Washington Square,11/LAWRENCE-HAVERHILL-NEWBURYPORT LIMITED
7198,2448809,7,River Street & Lowell Ave,"11/LAWRENCE-HAVERHILL-NEWBURYPORT LIMITED, 1/LAWRENCE-HAVERHILL VIA THE LOOP"
7198,2448882,8,McGovern Transportation Center,"10/VILLAGE MALL VIA BROADWAY, 11/LAWRENCE-HAVERHILL-NEWBURYPORT LIMITED, 14/LAWRENCE-HAVERHILL VIA AMAZON/WARD HILL, 1/LAWRENCE-HAVERHILL VIA THE LOOP, 23/BEACH EXPRESS, 24/LAWRENCE-LOWELL, 2/ANDOVER SQUARE VIA SOUTH BROADWAY, 3/NORTH ANDOVER/WOODRIDGE, 4/THE LOOP VIA PROSPECT HILL, 5/MERRIMAC PLAZA/DANA FARBER VIA WATER STREET, 6/HOLY FAMILY HOSPITAL VIA LAWRENCE GENERAL, 7/BEACON STREET/MOUNT VERNON, 8/NORTH ANDOVER MALL VIA PARKER STREET, 9/MERRIMACK COLLEGE VIA SOUTH UNION STREET/NORTH ANDOVER MALL"
7199,2448882,1,McGovern Transportation Center,"10/VILLAGE MALL VIA BROADWAY, 11/LAWRENCE-HAVERHILL-NEWBURYPORT LIMITED, 14/LAWRENCE-HAVERHILL VIA AMAZON/WARD HILL, 1/LAWRENCE-HAVERHILL VIA THE LOOP, 23/BEACH EXPRESS, 24/LAWRENCE-LOWELL, 2/ANDOVER SQUARE VIA SOUTH BROADWAY, 3/NORTH ANDOVER/WOODRIDGE, 4/THE LOOP VIA PROSPECT HILL, 5/MERRIMAC PLAZA/DANA FARBER VIA WATER STREET, 6/HOLY FAMILY HOSPITAL VIA LAWRENCE GENERAL, 7/BEACON STREET/MOUNT VERNON, 8/NORTH ANDOVER MALL VIA PARKER STREET, 9/MERRIMACK COLLEGE VIA SOUTH UNION STREET/NORTH ANDOVER MALL"
7199,2448782,2,River Street & Lowell Ave,"11/LAWRENCE-HAVERHILL-NEWBURYPORT LIMITED, 1/LAWRENCE-HAVERHILL VIA THE LOOP"
7199,4247472,3,Washington Square,11/LAWRENCE-HAVERHILL-NEWBURYPORT LIMITED
7199,2454593,4,Rivers Edge Plaza - Entrance,"11/LAWRENCE-HAVERHILL-NEWBURYPORT LIMITED, 18/RIVERSIDE/GROVELAND, 22/BUTTONWOODS EXPRESS"
7199,4247480,5,Main & Maple Street,11/LAWRENCE-HAVERHILL-NEWBURYPORT LIMITED
7199,4247483,6,Storey Ave & Low Street,11/LAWRENCE-HAVERHILL-NEWBURYPORT LIMITED
7199,2448754,7,Newburyport MBTA Station,"11/LAWRENCE-HAVERHILL-NEWBURYPORT LIMITED, 19/AMESBURY/COSTELLO, 20/SALISBURY BEACH, 53/Newburyport Summer Shuttle, 54/Amesbury-Newburyport-Salisbury"
7199,2594155,8,Pond Street - CVS,"11/LAWRENCE-HAVERHILL-NEWBURYPORT LIMITED, 19/AMESBURY/COSTELLO, 20/SALISBURY BEACH, 54/Amesbury-Newburyport-Salisbury"
7384,2448882,1,McGovern Transportation Center,"10/VILLAGE MALL VIA BROADWAY, 11/LAWRENCE-HAVERHILL-NEWBURYPORT LIMITED, 14/LAWRENCE-HAVERHILL VIA AMAZON/WARD HILL, 1/LAWRENCE-HAVERHILL VIA THE LOOP, 23/BEACH EXPRESS, 24/LAWRENCE-LOWELL, 2/ANDOVER SQUARE VIA SOUTH BROADWAY, 3/NORTH ANDOVER/WOODRIDGE, 4/THE LOOP VIA PROSPECT HILL, 5/MERRIMAC PLAZA/DANA FARBER VIA WATER STREET, 6/HOLY FAMILY HOSPITAL VIA LAWRENCE GENERAL, 7/BEACON STREET/MOUNT VERNON, 8/NORTH ANDOVER MALL VIA PARKER STREET, 9/MERRIMACK COLLEGE VIA SOUTH UNION STREET/NORTH ANDOVER MALL"
7384,4247440,2,Essex and Hampshire Street,24/LAWRENCE-LOWELL
7384,2448785,3,Merrimack Plaza - Rite-Aid Pharmacy,"24/LAWRENCE-LOWELL, 5/MERRIMAC PLAZA/DANA FARBER VIA WATER STREET"
7384,2448880,4,Merrimack Avenue & Draycott Avenue - Lenzis Bakery,24/LAWRENCE-LOWELL
7384,2448883,5,UMass Lowell Inn & Conference Center,24/LAWRENCE-LOWELL
7384,2448866,6,Robert B. Kennedy Transfer Center,24/LAWRENCE-LOWELL
7385,2448882,1,McGovern Transportation Center,"10/VILLAGE MALL VIA BROADWAY, 11/LAWRENCE-HAVERHILL-NEWBURYPORT LIMITED, 14/LAWRENCE-HAVERHILL VIA AMAZON/WARD HILL, 1/LAWRENCE-HAVERHILL VIA THE LOOP, 23/BEACH EXPRESS, 24/LAWRENCE-LOWELL, 2/ANDOVER SQUARE VIA SOUTH BROADWAY, 3/NORTH ANDOVER/WOODRIDGE, 4/THE LOOP VIA PROSPECT HILL, 5/MERRIMAC PLAZA/DANA FARBER VIA WATER STREET, 6/HOLY FAMILY HOSPITAL VIA LAWRENCE GENERAL, 7/BEACON STREET/MOUNT VERNON, 8/NORTH ANDOVER MALL VIA PARKER STREET, 9/MERRIMACK COLLEGE VIA SOUTH UNION STREET/NORTH ANDOVER MALL"
7385,4247440,2,Essex and Hampshire Street,24/LAWRENCE-LOWELL
7385,2448785,3,Merrimack Plaza - Rite-Aid Pharmacy,"24/LAWRENCE-LOWELL, 5/MERRIMAC PLAZA/DANA FARBER VIA WATER STREET"
7385,2448880,4,Merrimack Avenue & Draycott Avenue - Lenzis Bakery,24/LAWRENCE-LOWELL
7385,2448883,5,UMass Lowell Inn & Conference Center,24/LAWRENCE-LOWELL
7385,2448866,6,Robert B. Kennedy Transfer Center,24/LAWRENCE-LOWELL
7568,2448774,1,Senior Center,21/ANDOVER SHUTTLE
7568,2448727,2,Chestnut Court,21/ANDOVER SHUTTLE
7568,4212889,3,Senior Center,21/ANDOVER SHUTTLE
7568,2448787,4,Main Street & Central Street,"21/ANDOVER SHUTTLE, 2/ANDOVER SQUARE VIA SOUTH BROADWAY"
7568,2448793,5,Andover Commons,21/ANDOVER SHUTTLE
7568,2448750,6,Shawsheen Plaza,21/ANDOVER SHUTTLE
7568,2448773,7,Frye Circle,21/ANDOVER SHUTTLE
7568,2448771,8,Doctors Park,21/ANDOVER SHUTTLE
7568,2448829,9,YMCA,21/ANDOVER SHUTTLE
7569,2448829,1,YMCA,21/ANDOVER SHUTTLE
7569,2448875,2,North Andover Mall - Market Basket,"21/ANDOVER SHUTTLE, 3/NORTH ANDOVER/WOODRIDGE, 8/NORTH ANDOVER MALL VIA PARKER STREET, 9/MERRIMACK COLLEGE VIA SOUTH UNION STREET/NORTH ANDOVER MALL"
7569,2448835,3,Doctors Park,"21/ANDOVER SHUTTLE, 8/NORTH ANDOVER MALL VIA PARKER STREET"
7569,2448865,4,Frye Circle,21/ANDOVER SHUTTLE
7569,2448750,5,Shawsheen Plaza,21/ANDOVER SHUTTLE
7569,2448911,6,Andover Commons,21/ANDOVER SHUTTLE
7569,2448891,7,Main Street & Central Street,"21/ANDOVER SHUTTLE, 2/ANDOVER SQUARE VIA SOUTH BROADWAY"
7569,2448774,8,Senior Center,21/ANDOVER SHUTTLE
7570,2579602,1,Plaistow Walmart,13/STATELINE PLAZA/PLAISTOW
7570,2579603,2,Plaistow Market Basket,13/STATELINE PLAZA/PLAISTOW
7570,2448766,3,Stateline Plaza - TJ Maxx,13/STATELINE PLAZA/PLAISTOW
7570,2448867,4,Monument Square,13/STATELINE PLAZA/PLAISTOW
7570,2448845,5,Washington Square Transit Center,"13/STATELINE PLAZA/PLAISTOW, 14/LAWRENCE-HAVERHILL VIA AMAZON/WARD HILL, 15/WESTGATE PLAZA VIA HILLDALE, 16/WESTGATE PLAZA VIA WASHINGTON STREET, 17/SALISBURY BEACH VIA AMESBURY, 18/RIVERSIDE/GROVELAND, 1/LAWRENCE-HAVERHILL VIA THE LOOP, 23/BEACH EXPRESS, 51/Haverhill-Amesbury"
7571,2448845,1,Washington Square Transit Center,"13/STATELINE PLAZA/PLAISTOW, 14/LAWRENCE-HAVERHILL VIA AMAZON/WARD HILL, 15/WESTGATE PLAZA VIA HILLDALE, 16/WESTGATE PLAZA VIA WASHINGTON STREET, 17/SALISBURY BEACH VIA AMESBURY, 18/RIVERSIDE/GROVELAND, 1/LAWRENCE-HAVERHILL VIA THE LOOP, 23/BEACH EXPRESS, 51/Haverhill-Amesbury"
7571,2448842,2,Monument Square,13/STATELINE PLAZA/PLAISTOW
7571,2448825,3,North Avenue & Gas Company Road,13/STATELINE PLAZA/PLAISTOW
7571,2448766,4,Stateline Plaza - TJ Maxx,13/STATELINE PLAZA/PLAISTOW
7571,2579602,5,Plaistow Walmart,13/STATELINE PLAZA/PLAISTOW
7572,2448882,1,McGovern Transportation Center,"10/VILLAGE MALL VIA BROADWAY, 11/LAWRENCE-HAVERHILL-NEWBURYPORT LIMITED, 14/LAWRENCE-HAVERHILL VIA AMAZON/WARD HILL, 1/LAWRENCE-HAVERHILL VIA THE LOOP, 23/BEACH EXPRESS, 24/LAWRENCE-LOWELL, 2/ANDOVER SQUARE VIA SOUTH BROADWAY, 3/NORTH ANDOVER/WOODRIDGE, 4/THE LOOP VIA PROSPECT HILL, 5/MERRIMAC PLAZA/DANA FARBER VIA WATER STREET, 6/HOLY FAMILY HOSPITAL VIA LAWRENCE GENERAL, 7/BEACON STREET/MOUNT VERNON, 8/NORTH ANDOVER MALL VIA PARKER STREET, 9/MERRIMACK COLLEGE VIA SOUTH UNION STREET/NORTH ANDOVER MALL"
7572,4247429,2,Lawrence General Hospital (Main Entrance),6/HOLY FAMILY HOSPITAL VIA LAWRENCE GENERAL
7572,2448930,3,Senior Center,"12/LAWRENCE CROSSTOWN, 4/THE LOOP VIA PROSPECT HILL, 6/HOLY FAMILY HOSPITAL VIA LAWRENCE GENERAL"
7572,2448812,4,Elm Towers,6/HOLY FAMILY HOSPITAL VIA LAWRENCE GENERAL
7572,2448860,5,Rita Hall,6/HOLY FAMILY HOSPITAL VIA LAWRENCE GENERAL
7572,2448737,6,Holy Family Hospital,6/HOLY FAMILY HOSPITAL VIA LAWRENCE GENERAL
7573,2448882,1,McGovern Transportation Center,"10/VILLAGE MALL VIA BROADWAY, 11/LAWRENCE-HAVERHILL-NEWBURYPORT LIMITED, 14/LAWRENCE-HAVERHILL VIA AMAZON/WARD HILL, 1/LAWRENCE-HAVERHILL VIA THE LOOP, 23/BEACH EXPRESS, 24/LAWRENCE-LOWELL, 2/ANDOVER SQUARE VIA SOUTH BROADWAY, 3/NORTH ANDOVER/WOODRIDGE, 4/THE LOOP VIA PROSPECT HILL, 5/MERRIMAC PLAZA/DANA FARBER VIA WATER STREET, 6/HOLY FAMILY HOSPITAL VIA LAWRENCE GENERAL, 7/BEACON STREET/MOUNT VERNON, 8/NORTH ANDOVER MALL VIA PARKER STREET, 9/MERRIMACK COLLEGE VIA SOUTH UNION STREET/NORTH ANDOVER MALL"
7573,4247429,2,Lawrence General Hospital (Main Entrance),6/HOLY FAMILY HOSPITAL VIA LAWRENCE GENERAL
7573,2448930,3,Senior Center,"12/LAWRENCE CROSSTOWN, 4/THE LOOP VIA PROSPECT HILL, 6/HOLY FAMILY HOSPITAL VIA LAWRENCE GENERAL"
7573,2448812,4,Elm Towers,6/HOLY FAMILY HOSPITAL VIA LAWRENCE GENERAL
7573,2448860,5,Rita Hall,6/HOLY FAMILY HOSPITAL VIA LAWRENCE GENERAL
7573,2448737,6,Holy Family Hospital,6/HOLY FAMILY HOSPITAL VIA LAWRENCE GENERAL
7574,2448737,1,Holy Family Hospital,6/HOLY FAMILY HOSPITAL VIA LAWRENCE GENERAL
7574,2448846,2,Rita Hall,6/HOLY FAMILY HOSPITAL VIA LAWRENCE GENERAL
7574,2448792,3,Elm Towers,6/HOLY FAMILY HOSPITAL VIA LAWRENCE GENERAL
7574,4247432,4,Senior Center,6/HOLY FAMILY HOSPITAL VIA LAWRENCE GENERAL
7574,4247429,5,Lawrence General Hospital (Main Entrance),6/HOLY FAMILY HOSPITAL VIA LAWRENCE GENERAL
7574,2448882,6,McGovern Transportation Center,"10/VILLAGE MALL VIA BROADWAY, 11/LAWRENCE-HAVERHILL-NEWBURYPORT LIMITED, 14/LAWRENCE-HAVERHILL VIA AMAZON/WARD HILL, 1/LAWRENCE-HAVERHILL VIA THE LOOP, 23/BEACH EXPRESS, 24/LAWRENCE-LOWELL, 2/ANDOVER SQUARE VIA SOUTH BROADWAY, 3/NORTH ANDOVER/WOODRIDGE, 4/THE LOOP VIA PROSPECT HILL, 5/MERRIMAC PLAZA/DANA FARBER VIA WATER STREET, 6/HOLY FAMILY HOSPITAL VIA LAWRENCE GENERAL, 7/BEACON STREET/MOUNT VERNON, 8/NORTH ANDOVER MALL VIA PARKER STREET, 9/MERRIMACK COLLEGE VIA SOUTH UNION STREET/NORTH ANDOVER MALL"
7575,2448737,1,Holy Family Hospital,6/HOLY FAMILY HOSPITAL VIA LAWRENCE GENERAL
7575,2448846,2,Rita Hall,6/HOLY FAMILY HOSPITAL VIA LAWRENCE GENERAL
7575,2448792,3,Elm Towers,6/HOLY FAMILY HOSPITAL VIA LAWRENCE GENERAL
7575,4247432,4,Senior Center,6/HOLY FAMILY HOSPITAL VIA LAWRENCE GENERAL
7575,4247429,5,Lawrence General Hospital (Main Entrance),6/HOLY FAMILY HOSPITAL VIA LAWRENCE GENERAL
7575,2448882,6,McGovern Transportation Center,"10/VILLAGE MALL VIA BROADWAY, 11/LAWRENCE-HAVERHILL-NEWBURYPORT LIMITED, 14/LAWRENCE-HAVERHILL VIA AMAZON/WARD HILL, 1/LAWRENCE-HAVERHILL VIA THE LOOP, 23/BEACH EXPRESS, 24/LAWRENCE-LOWELL, 2/ANDOVER SQUARE VIA SOUTH BROADWAY, 3/NORTH ANDOVER/WOODRIDGE, 4/THE LOOP VIA PROSPECT HILL, 5/MERRIMAC PLAZA/DANA FARBER VIA WATER STREET, 6/HOLY FAMILY HOSPITAL VIA LAWRENCE GENERAL, 7/BEACON STREET/MOUNT VERNON, 8/NORTH ANDOVER MALL VIA PARKER STREET, 9/MERRIMACK COLLEGE VIA SOUTH UNION STREET/NORTH ANDOVER MALL"
7576,2448764,1,McGovern Transportation Center,"23/BEACH EXPRESS, 2/ANDOVER SQUARE VIA SOUTH BROADWAY, 99/Methuen-Lawrence-Andover to Boston"
7576,2448723,2,S Broadway & Mt Vernon Street,"26/IRS/RAYTHEON (NUKES & TAXES), 2/ANDOVER SQUARE VIA SOUTH BROADWAY, 99/Methuen-Lawrence-Andover to Boston"
7576,2448813,3,Shawsheen Square,2/ANDOVER SQUARE VIA SOUTH BROADWAY
7576,2448891,4,Main Street & Central Street,"21/ANDOVER SHUTTLE, 2/ANDOVER SQUARE VIA SOUTH BROADWAY"
7576,2448849,5,Main Street & School Street,2/ANDOVER SQUARE VIA SOUTH BROADWAY
7577,2448849,1,Main Street & School Street,2/ANDOVER SQUARE VIA SOUTH BROADWAY
7577,2448890,2,Andover Square,2/ANDOVER SQUARE VIA SOUTH BROADWAY
7577,2448724,3,Shawsheen Square,"2/ANDOVER SQUARE VIA SOUTH BROADWAY, 99/Methuen-Lawrence-Andover to Boston"
7577,2448810,4,S Broadway & Mt Vernon Street,"26/IRS/RAYTHEON (NUKES & TAXES), 2/ANDOVER SQUARE VIA SOUTH BROADWAY, 99/Methuen-Lawrence-Andover to Boston"
7577,2448882,5,McGovern Transportation Center,"10/VILLAGE MALL VIA BROADWAY, 11/LAWRENCE-HAVERHILL-NEWBURYPORT LIMITED, 14/LAWRENCE-HAVERHILL VIA AMAZON/WARD HILL, 1/LAWRENCE-HAVERHILL VIA THE LOOP, 23/BEACH EXPRESS, 24/LAWRENCE-LOWELL, 2/ANDOVER SQUARE VIA SOUTH BROADWAY, 3/NORTH ANDOVER/WOODRIDGE, 4/THE LOOP VIA PROSPECT HILL, 5/MERRIMAC PLAZA/DANA FARBER VIA WATER STREET, 6/HOLY FAMILY HOSPITAL VIA LAWRENCE GENERAL, 7/BEACON STREET/MOUNT VERNON, 8/NORTH ANDOVER MALL VIA PARKER STREET, 9/MERRIMACK COLLEGE VIA SOUTH UNION STREET/NORTH ANDOVER MALL"
7578,2448764,1,McGovern Transportation Center,"23/BEACH EXPRESS, 2/ANDOVER SQUARE VIA SOUTH BROADWAY, 99/Methuen-Lawrence-Andover to Boston"
7578,2448723,2,S Broadway & Mt Vernon Street,"26/IRS/RAYTHEON (NUKES & TAXES), 2/ANDOVER SQUARE VIA SOUTH BROADWAY, 99/Methuen-Lawrence-Andover to Boston"
7578,2448813,3,Shawsheen Square,2/ANDOVER SQUARE VIA SOUTH BROADWAY
7578,2448891,4,Main Street & Central Street,"21/ANDOVER SHUTTLE, 2/ANDOVER SQUARE VIA SOUTH BROADWAY"
7578,2448849,5,Main Street & School Street,2/ANDOVER SQUARE VIA SOUTH BROADWAY
7579,2448849,1,Main Street & School Street,2/ANDOVER SQUARE VIA SOUTH BROADWAY
7579,2448890,2,Andover Square,2/ANDOVER SQUARE VIA SOUTH BROADWAY
7579,2448724,3,Shawsheen Square,"2/ANDOVER SQUARE VIA SOUTH BROADWAY, 99/Methuen-Lawrence-Andover to Boston"
7579,2448810,4,S Broadway & Mt Vernon Street,"26/IRS/RAYTHEON (NUKES & TAXES), 2/ANDOVER SQUARE VIA SOUTH BROADWAY, 99/Methuen-Lawrence-Andover to Boston"
7579,2448882,5,McGovern Transportation Center,"10/VILLAGE MALL VIA BROADWAY, 11/LAWRENCE-HAVERHILL-NEWBURYPORT LIMITED, 14/LAWRENCE-HAVERHILL VIA AMAZON/WARD HILL, 1/LAWRENCE-HAVERHILL VIA THE LOOP, 23/BEACH EXPRESS, 24/LAWRENCE-LOWELL, 2/ANDOVER SQUARE VIA SOUTH BROADWAY, 3/NORTH ANDOVER/WOODRIDGE, 4/THE LOOP VIA PROSPECT HILL, 5/MERRIMAC PLAZA/DANA FARBER VIA WATER STREET, 6/HOLY FAMILY HOSPITAL VIA LAWRENCE GENERAL, 7/BEACON STREET/MOUNT VERNON, 8/NORTH ANDOVER MALL VIA PARKER STREET, 9/MERRIMACK COLLEGE VIA SOUTH UNION STREET/NORTH ANDOVER MALL"
7580,2448770,1,Marriott Springhill Suites,7/BEACON STREET/MOUNT VERNON
7580,2448732,2,Courtyard Marriott,7/BEACON STREET/MOUNT VERNON
7580,3475112,3,Andover Street & Beacon Street,7/BEACON STREET/MOUNT VERNON
7580,2448882,4,McGovern Transportation Center,"10/VILLAGE MALL VIA BROADWAY, 11/LAWRENCE-HAVERHILL-NEWBURYPORT LIMITED, 14/LAWRENCE-HAVERHILL VIA AMAZON/WARD HILL, 1/LAWRENCE-HAVERHILL VIA THE LOOP, 23/BEACH EXPRESS, 24/LAWRENCE-LOWELL, 2/ANDOVER SQUARE VIA SOUTH BROADWAY, 3/NORTH ANDOVER/WOODRIDGE, 4/THE LOOP VIA PROSPECT HILL, 5/MERRIMAC PLAZA/DANA FARBER VIA WATER STREET, 6/HOLY FAMILY HOSPITAL VIA LAWRENCE GENERAL, 7/BEACON STREET/MOUNT VERNON, 8/NORTH ANDOVER MALL VIA PARKER STREET, 9/MERRIMACK COLLEGE VIA SOUTH UNION STREET/NORTH ANDOVER MALL"
7581,2448770,1,Marriott Springhill Suites,7/BEACON STREET/MOUNT VERNON
7581,2448732,2,Courtyard Marriott,7/BEACON STREET/MOUNT VERNON
7581,3475112,3,Andover Street & Beacon Street,7/BEACON STREET/MOUNT VERNON
7581,2448882,4,McGovern Transportation Center,"10/VILLAGE MALL VIA BROADWAY, 11/LAWRENCE-HAVERHILL-NEWBURYPORT LIMITED, 14/LAWRENCE-HAVERHILL VIA AMAZON/WARD HILL, 1/LAWRENCE-HAVERHILL VIA THE LOOP, 23/BEACH EXPRESS, 24/LAWRENCE-LOWELL, 2/ANDOVER SQUARE VIA SOUTH BROADWAY, 3/NORTH ANDOVER/WOODRIDGE, 4/THE LOOP VIA PROSPECT HILL, 5/MERRIMAC PLAZA/DANA FARBER VIA WATER STREET, 6/HOLY FAMILY HOSPITAL VIA LAWRENCE GENERAL, 7/BEACON STREET/MOUNT VERNON, 8/NORTH ANDOVER MALL VIA PARKER STREET, 9/MERRIMACK COLLEGE VIA SOUTH UNION STREET/NORTH ANDOVER MALL"
7582,2448882,1,McGovern Transportation Center,"10/VILLAGE MALL VIA BROADWAY, 11/LAWRENCE-HAVERHILL-NEWBURYPORT LIMITED, 14/LAWRENCE-HAVERHILL VIA AMAZON/WARD HILL, 1/LAWRENCE-HAVERHILL VIA THE LOOP, 23/BEACH EXPRESS, 24/LAWRENCE-LOWELL, 2/ANDOVER SQUARE VIA SOUTH BROADWAY, 3/NORTH ANDOVER/WOODRIDGE, 4/THE LOOP VIA PROSPECT HILL, 5/MERRIMAC PLAZA/DANA FARBER VIA WATER STREET, 6/HOLY FAMILY HOSPITAL VIA LAWRENCE GENERAL, 7/BEACON STREET/MOUNT VERNON, 8/NORTH ANDOVER MALL VIA PARKER STREET, 9/MERRIMACK COLLEGE VIA SOUTH UNION STREET/NORTH ANDOVER MALL"
7582,2448827,2,Andover Street & Beacon Street,"27/BEACON STREET SPECIAL, 7/BEACON STREET/MOUNT VERNON"
7582,2448721,3,Lawrence Vocational School (VOC),7/BEACON STREET/MOUNT VERNON
7582,2448770,4,Marriott Springhill Suites,7/BEACON STREET/MOUNT VERNON
7583,2448882,1,McGovern Transportation Center,"10/VILLAGE MALL VIA BROADWAY, 11/LAWRENCE-HAVERHILL-NEWBURYPORT LIMITED, 14/LAWRENCE-HAVERHILL VIA AMAZON/WARD HILL, 1/LAWRENCE-HAVERHILL VIA THE LOOP, 23/BEACH EXPRESS, 24/LAWRENCE-LOWELL, 2/ANDOVER SQUARE VIA SOUTH BROADWAY, 3/NORTH ANDOVER/WOODRIDGE, 4/THE LOOP VIA PROSPECT HILL, 5/MERRIMAC PLAZA/DANA FARBER VIA WATER STREET, 6/HOLY FAMILY HOSPITAL VIA LAWRENCE GENERAL, 7/BEACON STREET/MOUNT VERNON, 8/NORTH ANDOVER MALL VIA PARKER STREET, 9/MERRIMACK COLLEGE VIA SOUTH UNION STREET/NORTH ANDOVER MALL"
7583,2448827,2,Andover Street & Beacon Street,"27/BEACON STREET SPECIAL, 7/BEACON STREET/MOUNT VERNON"
7583,2448721,3,Lawrence Vocational School (VOC),7/BEACON STREET/MOUNT VERNON
7583,2448770,4,Marriott Springhill Suites,7/BEACON STREET/MOUNT VERNON
7584,2448845,1,Washington Square Transit Center,"13/STATELINE PLAZA/PLAISTOW, 14/LAWRENCE-HAVERHILL VIA AMAZON/WARD HILL, 15/WESTGATE PLAZA VIA HILLDALE, 16/WESTGATE PLAZA VIA WASHINGTON STREET, 17/SALISBURY BEACH VIA AMESBURY, 18/RIVERSIDE/GROVELAND, 1/LAWRENCE-HAVERHILL VIA THE LOOP, 23/BEACH EXPRESS, 51/Haverhill-Amesbury"
7584,2448809,2,River Street & Lowell Ave,"11/LAWRENCE-HAVERHILL-NEWBURYPORT LIMITED, 1/LAWRENCE-HAVERHILL VIA THE LOOP"
7584,4212790,3,The Loop,"1/LAWRENCE-HAVERHILL VIA THE LOOP, 4/THE LOOP VIA PROSPECT HILL"
7584,2448751,4,Methuen Plaza - Walmart,"1/LAWRENCE-HAVERHILL VIA THE LOOP, 4/THE LOOP VIA PROSPECT HILL"
7584,2448804,5,Target Plaza,"1/LAWRENCE-HAVERHILL VIA THE LOOP, 4/THE LOOP VIA PROSPECT HILL"
7584,4247392,6,Jackson and Swan Street,1/LAWRENCE-HAVERHILL VIA THE LOOP
7584,2448882,7,McGovern Transportation Center,"10/VILLAGE MALL VIA BROADWAY, 11/LAWRENCE-HAVERHILL-NEWBURYPORT LIMITED, 14/LAWRENCE-HAVERHILL VIA AMAZON/WARD HILL, 1/LAWRENCE-HAVERHILL VIA THE LOOP, 23/BEACH EXPRESS, 24/LAWRENCE-LOWELL, 2/ANDOVER SQUARE VIA SOUTH BROADWAY, 3/NORTH ANDOVER/WOODRIDGE, 4/THE LOOP VIA PROSPECT HILL, 5/MERRIMAC PLAZA/DANA FARBER VIA WATER STREET, 6/HOLY FAMILY HOSPITAL VIA LAWRENCE GENERAL, 7/BEACON STREET/MOUNT VERNON, 8/NORTH ANDOVER MALL VIA PARKER STREET, 9/MERRIMACK COLLEGE VIA SOUTH UNION STREET/NORTH ANDOVER MALL"
7585,2448882,1,McGovern Transportation Center,"10/VILLAGE MALL VIA BROADWAY, 11/LAWRENCE-HAVERHILL-NEWBURYPORT LIMITED, 14/LAWRENCE-HAVERHILL VIA AMAZON/WARD HILL, 1/LAWRENCE-HAVERHILL VIA THE LOOP, 23/BEACH EXPRESS, 24/LAWRENCE-LOWELL, 2/ANDOVER SQUARE VIA SOUTH BROADWAY, 3/NORTH ANDOVER/WOODRIDGE, 4/THE LOOP VIA PROSPECT HILL, 5/MERRIMAC PLAZA/DANA FARBER VIA WATER STREET, 6/HOLY FAMILY HOSPITAL VIA LAWRENCE GENERAL, 7/BEACON STREET/MOUNT VERNON, 8/NORTH ANDOVER MALL VIA PARKER STREET, 9/MERRIMACK COLLEGE VIA SOUTH UNION STREET/NORTH ANDOVER MALL"
7585,2448765,2,NECC Lawrence Campus,"10/VILLAGE MALL VIA BROADWAY, 1/LAWRENCE-HAVERHILL VIA THE LOOP, 56/NECC Express"
7585,4247391,3,Jackson and Swan,1/LAWRENCE-HAVERHILL VIA THE LOOP
7585,4212790,4,The Loop,"1/LAWRENCE-HAVERHILL VIA THE LOOP, 4/THE LOOP VIA PROSPECT HILL"
7585,2448751,5,Methuen Plaza - Walmart,"1/LAWRENCE-HAVERHILL VIA THE LOOP, 4/THE LOOP VIA PROSPECT HILL"
7585,2448804,6,Target Plaza,"1/LAWRENCE-HAVERHILL VIA THE LOOP, 4/THE LOOP VIA PROSPECT HILL"
7585,2448782,7,River Street & Lowell Ave,"11/LAWRENCE-HAVERHILL-NEWBURYPORT LIMITED, 1/LAWRENCE-HAVERHILL VIA THE LOOP"
7585,2448845,8,Washington Square Transit Center,"13/STATELINE PLAZA/PLAISTOW, 14/LAWRENCE-HAVERHILL VIA AMAZON/WARD HILL, 15/WESTGATE PLAZA VIA HILLDALE, 16/WESTGATE PLAZA VIA WASHINGTON STREET, 17/SALISBURY BEACH VIA AMESBURY, 18/RIVERSIDE/GROVELAND, 1/LAWRENCE-HAVERHILL VIA THE LOOP, 23/BEACH EXPRESS, 51/Haverhill-Amesbury"
7586,2448845,1,Washington Square Transit Center,"13/STATELINE PLAZA/PLAISTOW, 14/LAWRENCE-HAVERHILL VIA AMAZON/WARD HILL, 15/WESTGATE PLAZA VIA HILLDALE, 16/WESTGATE PLAZA VIA WASHINGTON STREET, 17/SALISBURY BEACH VIA AMESBURY, 18/RIVERSIDE/GROVELAND, 1/LAWRENCE-HAVERHILL VIA THE LOOP, 23/BEACH EXPRESS, 51/Haverhill-Amesbury"
7586,2448809,2,River Street & Lowell Ave,"11/LAWRENCE-HAVERHILL-NEWBURYPORT LIMITED, 1/LAWRENCE-HAVERHILL VIA THE LOOP"
7586,4212790,3,The Loop,"1/LAWRENCE-HAVERHILL VIA THE LOOP, 4/THE LOOP VIA PROSPECT HILL"
7586,2448751,4,Methuen Plaza - Walmart,"1/LAWRENCE-HAVERHILL VIA THE LOOP, 4/THE LOOP VIA PROSPECT HILL"
7586,2448804,5,Target Plaza,"1/LAWRENCE-HAVERHILL VIA THE LOOP, 4/THE LOOP VIA PROSPECT HILL"
7586,4247392,6,Jackson and Swan Street,1/LAWRENCE-HAVERHILL VIA THE LOOP
7586,2448882,7,McGovern Transportation Center,"10/VILLAGE MALL VIA BROADWAY, 11/LAWRENCE-HAVERHILL-NEWBURYPORT LIMITED, 14/LAWRENCE-HAVERHILL VIA AMAZON/WARD HILL, 1/LAWRENCE-HAVERHILL VIA THE LOOP, 23/BEACH EXPRESS, 24/LAWRENCE-LOWELL, 2/ANDOVER SQUARE VIA SOUTH BROADWAY, 3/NORTH ANDOVER/WOODRIDGE, 4/THE LOOP VIA PROSPECT HILL, 5/MERRIMAC PLAZA/DANA FARBER VIA WATER STREET, 6/HOLY FAMILY HOSPITAL VIA LAWRENCE GENERAL, 7/BEACON STREET/MOUNT VERNON, 8/NORTH ANDOVER MALL VIA PARKER STREET, 9/MERRIMACK COLLEGE VIA SOUTH UNION STREET/NORTH ANDOVER MALL"
7587,2448882,1,McGovern Transportation Center,"10/VILLAGE MALL VIA BROADWAY, 11/LAWRENCE-HAVERHILL-NEWBURYPORT LIMITED, 14/LAWRENCE-HAVERHILL VIA AMAZON/WARD HILL, 1/LAWRENCE-HAVERHILL VIA THE LOOP, 23/BEACH EXPRESS, 24/LAWRENCE-LOWELL, 2/ANDOVER SQUARE VIA SOUTH BROADWAY, 3/NORTH ANDOVER/WOODRIDGE, 4/THE LOOP VIA PROSPECT HILL, 5/MERRIMAC PLAZA/DANA FARBER VIA WATER STREET, 6/HOLY FAMILY HOSPITAL VIA LAWRENCE GENERAL, 7/BEACON STREET/MOUNT VERNON, 8/NORTH ANDOVER MALL VIA PARKER STREET, 9/MERRIMACK COLLEGE VIA SOUTH UNION STREET/NORTH ANDOVER MALL"
7587,2448765,2,NECC Lawrence Campus,"10/VILLAGE MALL VIA BROADWAY, 1/LAWRENCE-HAVERHILL VIA THE LOOP, 56/NECC Express"
7587,4247391,3,Jackson and Swan,1/LAWRENCE-HAVERHILL VIA THE LOOP
7587,4212790,4,The Loop,"1/LAWRENCE-HAVERHILL VIA THE LOOP, 4/THE LOOP VIA PROSPECT HILL"
7587,2448751,5,Methuen Plaza - Walmart,"1/LAWRENCE-HAVERHILL VIA THE LOOP, 4/THE LOOP VIA PROSPECT HILL"
7587,2448804,6,Target Plaza,"1/LAWRENCE-HAVERHILL VIA THE LOOP, 4/THE LOOP VIA PROSPECT HILL"
7587,2448782,7,River Street & Lowell Ave,"11/LAWRENCE-HAVERHILL-NEWBURYPORT LIMITED, 1/LAWRENCE-HAVERHILL VIA THE LOOP"
7587,2448845,8,Washington Square Transit Center,"13/STATELINE PLAZA/PLAISTOW, 14/LAWRENCE-HAVERHILL VIA AMAZON/WARD HILL, 15/WESTGATE PLAZA VIA HILLDALE, 16/WESTGATE PLAZA VIA WASHINGTON STREET, 17/SALISBURY BEACH VIA AMESBURY, 18/RIVERSIDE/GROVELAND, 1/LAWRENCE-HAVERHILL VIA THE LOOP, 23/BEACH EXPRESS, 51/Haverhill-Amesbury"
7588,2579602,1,Plaistow Walmart,13/STATELINE PLAZA/PLAISTOW
7588,2579603,2,Plaistow Market Basket,13/STATELINE PLAZA/PLAISTOW
7588,2448766,3,Stateline Plaza - TJ Maxx,13/STATELINE PLAZA/PLAISTOW
7588,2448867,4,Monument Square,13/STATELINE PLAZA/PLAISTOW
7588,2448845,5,Washington Square Transit Center,"13/STATELINE PLAZA/PLAISTOW, 14/LAWRENCE-HAVERHILL VIA AMAZON/WARD HILL, 15/WESTGATE PLAZA VIA HILLDALE, 16/WESTGATE PLAZA VIA WASHINGTON STREET, 17/SALISBURY BEACH VIA AMESBURY, 18/RIVERSIDE/GROVELAND, 1/LAWRENCE-HAVERHILL VIA THE LOOP, 23/BEACH EXPRESS, 51/Haverhill-Amesbury"
7589,2448845,1,Washington Square Transit Center,"13/STATELINE PLAZA/PLAISTOW, 14/LAWRENCE-HAVERHILL VIA AMAZON/WARD HILL, 15/WESTGATE PLAZA VIA HILLDALE, 16/WESTGATE PLAZA VIA WASHINGTON STREET, 17/SALISBURY BEACH VIA AMESBURY, 18/RIVERSIDE/GROVELAND, 1/LAWRENCE-HAVERHILL VIA THE LOOP, 23/BEACH EXPRESS, 51/Haverhill-Amesbury"
7589,2448842,2,Monument Square,13/STATELINE PLAZA/PLAISTOW
7589,2448825,3,North Avenue & Gas Company Road,13/STATELINE PLAZA/PLAISTOW
7589,2448766,4,Stateline Plaza - TJ Maxx,13/STATELINE PLAZA/PLAISTOW
7589,2579602,5,Plaistow Walmart,13/STATELINE PLAZA/PLAISTOW
7590,2448882,1,McGovern Transportation Center,"10/VILLAGE MALL VIA BROADWAY, 11/LAWRENCE-HAVERHILL-NEWBURYPORT LIMITED, 14/LAWRENCE-HAVERHILL VIA AMAZON/WARD HILL, 1/LAWRENCE-HAVERHILL VIA THE LOOP, 23/BEACH EXPRESS, 24/LAWRENCE-LOWELL, 2/ANDOVER SQUARE VIA SOUTH BROADWAY, 3/NORTH ANDOVER/WOODRIDGE, 4/THE LOOP VIA PROSPECT HILL, 5/MERRIMAC PLAZA/DANA FARBER VIA WATER STREET, 6/HOLY FAMILY HOSPITAL VIA LAWRENCE GENERAL, 7/BEACON STREET/MOUNT VERNON, 8/NORTH ANDOVER MALL VIA PARKER STREET, 9/MERRIMACK COLLEGE VIA SOUTH UNION STREET/NORTH ANDOVER MALL"
7590,4244378,2,North Andover Senior Center,14/LAWRENCE-HAVERHILL VIA AMAZON/WARD HILL
7590,4244431,3,Amazon Distribution Center,14/LAWRENCE-HAVERHILL VIA AMAZON/WARD HILL
7590,2594239,4,Ward Hill Avenue - Cedars Warehouse,14/LAWRENCE-HAVERHILL VIA AMAZON/WARD HILL
7590,4247489,5,BJ's ,14/LAWRENCE-HAVERHILL VIA AMAZON/WARD HILL
7590,2448845,6,Washington Square Transit Center,"13/STATELINE PLAZA/PLAISTOW, 14/LAWRENCE-HAVERHILL VIA AMAZON/WARD HILL, 15/WESTGATE PLAZA VIA HILLDALE, 16/WESTGATE PLAZA VIA WASHINGTON STREET, 17/SALISBURY BEACH VIA AMESBURY, 18/RIVERSIDE/GROVELAND, 1/LAWRENCE-HAVERHILL VIA THE LOOP, 23/BEACH EXPRESS, 51/Haverhill-Amesbury"
7591,2448845,1,Washington Square Transit Center,"13/STATELINE PLAZA/PLAISTOW, 14/LAWRENCE-HAVERHILL VIA AMAZON/WARD HILL, 15/WESTGATE PLAZA VIA HILLDALE, 16/WESTGATE PLAZA VIA WASHINGTON STREET, 17/SALISBURY BEACH VIA AMESBURY, 18/RIVERSIDE/GROVELAND, 1/LAWRENCE-HAVERHILL VIA THE LOOP, 23/BEACH EXPRESS, 51/Haverhill-Amesbury"
7591,2448796,2,Ward Hill Industrial Park East,14/LAWRENCE-HAVERHILL VIA AMAZON/WARD HILL
7591,4247489,3,BJ's ,14/LAWRENCE-HAVERHILL VIA AMAZON/WARD HILL
7591,4244431,4,Amazon Distribution Center,14/LAWRENCE-HAVERHILL VIA AMAZON/WARD HILL
7591,4244374,5,North Andover Senior Center,14/LAWRENCE-HAVERHILL VIA AMAZON/WARD HILL
7591,2448882,6,McGovern Transportation Center,"10/VILLAGE MALL VIA BROADWAY, 11/LAWRENCE-HAVERHILL-NEWBURYPORT LIMITED, 14/LAWRENCE-HAVERHILL VIA AMAZON/WARD HILL, 1/LAWRENCE-HAVERHILL VIA THE LOOP, 23/BEACH EXPRESS, 24/LAWRENCE-LOWELL, 2/ANDOVER SQUARE VIA SOUTH BROADWAY, 3/NORTH ANDOVER/WOODRIDGE, 4/THE LOOP VIA PROSPECT HILL, 5/MERRIMAC PLAZA/DANA FARBER VIA WATER STREET, 6/HOLY FAMILY HOSPITAL VIA LAWRENCE GENERAL, 7/BEACON STREET/MOUNT VERNON, 8/NORTH ANDOVER MALL VIA PARKER STREET, 9/MERRIMACK COLLEGE VIA SOUTH UNION STREET/NORTH ANDOVER MALL"
7592,2448882,1,McGovern Transportation Center,"10/VILLAGE MALL VIA BROADWAY, 11/LAWRENCE-HAVERHILL-NEWBURYPORT LIMITED, 14/LAWRENCE-HAVERHILL VIA AMAZON/WARD HILL, 1/LAWRENCE-HAVERHILL VIA THE LOOP, 23/BEACH EXPRESS, 24/LAWRENCE-LOWELL, 2/ANDOVER SQUARE VIA SOUTH BROADWAY, 3/NORTH ANDOVER/WOODRIDGE, 4/THE LOOP VIA PROSPECT HILL, 5/MERRIMAC PLAZA/DANA FARBER VIA WATER STREET, 6/HOLY FAMILY HOSPITAL VIA LAWRENCE GENERAL, 7/BEACON STREET/MOUNT VERNON, 8/NORTH ANDOVER MALL VIA PARKER STREET, 9/MERRIMACK COLLEGE VIA SOUTH UNION STREET/NORTH ANDOVER MALL"
7592,4244378,2,North Andover Senior Center,14/LAWRENCE-HAVERHILL VIA AMAZON/WARD HILL
7592,4244431,3,Amazon Distribution Center,14/LAWRENCE-HAVERHILL VIA AMAZON/WARD HILL
7592,2594239,4,Ward Hill Avenue - Cedars Warehouse,14/LAWRENCE-HAVERHILL VIA AMAZON/WARD HILL
7592,4247489,5,BJ's ,14/LAWRENCE-HAVERHILL VIA AMAZON/WARD HILL
7592,2448845,6,Washington Square Transit Center,"13/STATELINE PLAZA/PLAISTOW, 14/LAWRENCE-HAVERHILL VIA AMAZON/WARD HILL, 15/WESTGATE PLAZA VIA HILLDALE, 16/WESTGATE PLAZA VIA WASHINGTON STREET, 17/SALISBURY BEACH VIA AMESBURY, 18/RIVERSIDE/GROVELAND, 1/LAWRENCE-HAVERHILL VIA THE LOOP, 23/BEACH EXPRESS, 51/Haverhill-Amesbury"
7593,2448845,1,Washington Square Transit Center,"13/STATELINE PLAZA/PLAISTOW, 14/LAWRENCE-HAVERHILL VIA AMAZON/WARD HILL, 15/WESTGATE PLAZA VIA HILLDALE, 16/WESTGATE PLAZA VIA WASHINGTON STREET, 17/SALISBURY BEACH VIA AMESBURY, 18/RIVERSIDE/GROVELAND, 1/LAWRENCE-HAVERHILL VIA THE LOOP, 23/BEACH EXPRESS, 51/Haverhill-Amesbury"
7593,2448796,2,Ward Hill Industrial Park East,14/LAWRENCE-HAVERHILL VIA AMAZON/WARD HILL
7593,4247489,3,BJ's ,14/LAWRENCE-HAVERHILL VIA AMAZON/WARD HILL
7593,4244431,4,Amazon Distribution Center,14/LAWRENCE-HAVERHILL VIA AMAZON/WARD HILL
7593,4244374,5,North Andover Senior Center,14/LAWRENCE-HAVERHILL VIA AMAZON/WARD HILL
7593,2448882,6,McGovern Transportation Center,"10/VILLAGE MALL VIA BROADWAY, 11/LAWRENCE-HAVERHILL-NEWBURYPORT LIMITED, 14/LAWRENCE-HAVERHILL VIA AMAZON/WARD HILL, 1/LAWRENCE-HAVERHILL VIA THE LOOP, 23/BEACH EXPRESS, 24/LAWRENCE-LOWELL, 2/ANDOVER SQUARE VIA SOUTH BROADWAY, 3/NORTH ANDOVER/WOODRIDGE, 4/THE LOOP VIA PROSPECT HILL, 5/MERRIMAC PLAZA/DANA FARBER VIA WATER STREET, 6/HOLY FAMILY HOSPITAL VIA LAWRENCE GENERAL, 7/BEACON STREET/MOUNT VERNON, 8/NORTH ANDOVER MALL VIA PARKER STREET, 9/MERRIMACK COLLEGE VIA SOUTH UNION STREET/NORTH ANDOVER MALL"
7594,2454604,1,Westgate Plaza - Entrance,"15/WESTGATE PLAZA VIA HILLDALE, 16/WESTGATE PLAZA VIA WASHINGTON STREET"
7594,2448918,2,"Haverhill Commons, Target","15/WESTGATE PLAZA VIA HILLDALE, 16/WESTGATE PLAZA VIA WASHINGTON STREET"
7594,2448730,3,Hilldale Avenue & Monument Street,15/WESTGATE PLAZA VIA HILLDALE
7594,2448845,4,Washington Square Transit Center,"13/STATELINE PLAZA/PLAISTOW, 14/LAWRENCE-HAVERHILL VIA AMAZON/WARD HILL, 15/WESTGATE PLAZA VIA HILLDALE, 16/WESTGATE PLAZA VIA WASHINGTON STREET, 17/SALISBURY BEACH VIA AMESBURY, 18/RIVERSIDE/GROVELAND, 1/LAWRENCE-HAVERHILL VIA THE LOOP, 23/BEACH EXPRESS, 51/Haverhill-Amesbury"
7595,2454604,1,Westgate Plaza - Entrance,"15/WESTGATE PLAZA VIA HILLDALE, 16/WESTGATE PLAZA VIA WASHINGTON STREET"
7595,2448918,2,"Haverhill Commons, Target","15/WESTGATE PLAZA VIA HILLDALE, 16/WESTGATE PLAZA VIA WASHINGTON STREET"
7595,2448730,3,Hilldale Avenue & Monument Street,15/WESTGATE PLAZA VIA HILLDALE
7595,2448845,4,Washington Square Transit Center,"13/STATELINE PLAZA/PLAISTOW, 14/LAWRENCE-HAVERHILL VIA AMAZON/WARD HILL, 15/WESTGATE PLAZA VIA HILLDALE, 16/WESTGATE PLAZA VIA WASHINGTON STREET, 17/SALISBURY BEACH VIA AMESBURY, 18/RIVERSIDE/GROVELAND, 1/LAWRENCE-HAVERHILL VIA THE LOOP, 23/BEACH EXPRESS, 51/Haverhill-Amesbury"
7596,2448845,1,Washington Square Transit Center,"13/STATELINE PLAZA/PLAISTOW, 14/LAWRENCE-HAVERHILL VIA AMAZON/WARD HILL, 15/WESTGATE PLAZA VIA HILLDALE, 16/WESTGATE PLAZA VIA WASHINGTON STREET, 17/SALISBURY BEACH VIA AMESBURY, 18/RIVERSIDE/GROVELAND, 1/LAWRENCE-HAVERHILL VIA THE LOOP, 23/BEACH EXPRESS, 51/Haverhill-Amesbury"
7596,2613752,2,Winter Street & Lafayette Square,15/WESTGATE PLAZA VIA HILLDALE
7596,2448748,3,Hilldale Avenue & Monument Street,15/WESTGATE PLAZA VIA HILLDALE
7596,2448918,4,"Haverhill Commons, Target","15/WESTGATE PLAZA VIA HILLDALE, 16/WESTGATE PLAZA VIA WASHINGTON STREET"
7596,2454604,5,Westgate Plaza - Entrance,"15/WESTGATE PLAZA VIA HILLDALE, 16/WESTGATE PLAZA VIA WASHINGTON STREET"
7597,2448845,1,Washington Square Transit Center,"13/STATELINE PLAZA/PLAISTOW, 14/LAWRENCE-HAVERHILL VIA AMAZON/WARD HILL, 15/WESTGATE PLAZA VIA HILLDALE, 16/WESTGATE PLAZA VIA WASHINGTON STREET, 17/SALISBURY BEACH VIA AMESBURY, 18/RIVERSIDE/GROVELAND, 1/LAWRENCE-HAVERHILL VIA THE LOOP, 23/BEACH EXPRESS, 51/Haverhill-Amesbury"
7597,2613752,2,Winter Street & Lafayette Square,15/WESTGATE PLAZA VIA HILLDALE
7597,2448748,3,Hilldale Avenue & Monument Street,15/WESTGATE PLAZA VIA HILLDALE
7597,2448918,4,"Haverhill Commons, Target","15/WESTGATE PLAZA VIA HILLDALE, 16/WESTGATE PLAZA VIA WASHINGTON STREET"
7597,2454604,5,Westgate Plaza - Entrance,"15/WESTGATE PLAZA VIA HILLDALE, 16/WESTGATE PLAZA VIA WASHINGTON STREET"
7598,2454604,1,Westgate Plaza - Entrance,"15/WESTGATE PLAZA VIA HILLDALE, 16/WESTGATE PLAZA VIA WASHINGTON STREET"
7598,4212168,2,Washington St Julian Steel Apartments,16/WESTGATE PLAZA VIA WASHINGTON STREET
7598,2448807,3,Currier Square,16/WESTGATE PLAZA VIA WASHINGTON STREET
7598,2448845,4,Washington Square Transit Center,"13/STATELINE PLAZA/PLAISTOW, 14/LAWRENCE-HAVERHILL VIA AMAZON/WARD HILL, 15/WESTGATE PLAZA VIA HILLDALE, 16/WESTGATE PLAZA VIA WASHINGTON STREET, 17/SALISBURY BEACH VIA AMESBURY, 18/RIVERSIDE/GROVELAND, 1/LAWRENCE-HAVERHILL VIA THE LOOP, 23/BEACH EXPRESS, 51/Haverhill-Amesbury"
7599,2454604,1,Westgate Plaza - Entrance,"15/WESTGATE PLAZA VIA HILLDALE, 16/WESTGATE PLAZA VIA WASHINGTON STREET"
7599,4212168,2,Washington St Julian Steel Apartments,16/WESTGATE PLAZA VIA WASHINGTON STREET
7599,2448807,3,Currier Square,16/WESTGATE PLAZA VIA WASHINGTON STREET
7599,2448845,4,Washington Square Transit Center,"13/STATELINE PLAZA/PLAISTOW, 14/LAWRENCE-HAVERHILL VIA AMAZON/WARD HILL, 15/WESTGATE PLAZA VIA HILLDALE, 16/WESTGATE PLAZA VIA WASHINGTON STREET, 17/SALISBURY BEACH VIA AMESBURY, 18/RIVERSIDE/GROVELAND, 1/LAWRENCE-HAVERHILL VIA THE LOOP, 23/BEACH EXPRESS, 51/Haverhill-Amesbury"
7600,2448845,1,Washington Square Transit Center,"13/STATELINE PLAZA/PLAISTOW, 14/LAWRENCE-HAVERHILL VIA AMAZON/WARD HILL, 15/WESTGATE PLAZA VIA HILLDALE, 16/WESTGATE PLAZA VIA WASHINGTON STREET, 17/SALISBURY BEACH VIA AMESBURY, 18/RIVERSIDE/GROVELAND, 1/LAWRENCE-HAVERHILL VIA THE LOOP, 23/BEACH EXPRESS, 51/Haverhill-Amesbury"
7600,2448789,2,Currier Square,16/WESTGATE PLAZA VIA WASHINGTON STREET
7600,2448726,3,Washington Street & Lowell Ave,16/WESTGATE PLAZA VIA WASHINGTON STREET
7600,2454604,4,Westgate Plaza - Entrance,"15/WESTGATE PLAZA VIA HILLDALE, 16/WESTGATE PLAZA VIA WASHINGTON STREET"
7601,2448845,1,Washington Square Transit Center,"13/STATELINE PLAZA/PLAISTOW, 14/LAWRENCE-HAVERHILL VIA AMAZON/WARD HILL, 15/WESTGATE PLAZA VIA HILLDALE, 16/WESTGATE PLAZA VIA WASHINGTON STREET, 17/SALISBURY BEACH VIA AMESBURY, 18/RIVERSIDE/GROVELAND, 1/LAWRENCE-HAVERHILL VIA THE LOOP, 23/BEACH EXPRESS, 51/Haverhill-Amesbury"
7601,2448789,2,Currier Square,16/WESTGATE PLAZA VIA WASHINGTON STREET
7601,2448726,3,Washington Street & Lowell Ave,16/WESTGATE PLAZA VIA WASHINGTON STREET
7601,2454604,4,Westgate Plaza - Entrance,"15/WESTGATE PLAZA VIA HILLDALE, 16/WESTGATE PLAZA VIA WASHINGTON STREET"
7602,3880688,1,Groveland Housing,18/RIVERSIDE/GROVELAND
7602,2448738,2,Rivers Edge Plaza - Building 19,"18/RIVERSIDE/GROVELAND, 22/BUTTONWOODS EXPRESS"
7602,2448872,3,Kennedy Circle,18/RIVERSIDE/GROVELAND
7602,2448885,4,Merrimack Valley Hospital - Main Entrance,18/RIVERSIDE/GROVELAND
7602,2448845,5,Washington Square Transit Center,"13/STATELINE PLAZA/PLAISTOW, 14/LAWRENCE-HAVERHILL VIA AMAZON/WARD HILL, 15/WESTGATE PLAZA VIA HILLDALE, 16/WESTGATE PLAZA VIA WASHINGTON STREET, 17/SALISBURY BEACH VIA AMESBURY, 18/RIVERSIDE/GROVELAND, 1/LAWRENCE-HAVERHILL VIA THE LOOP, 23/BEACH EXPRESS, 51/Haverhill-Amesbury"
7603,3880688,1,Groveland Housing,18/RIVERSIDE/GROVELAND
7603,2448738,2,Rivers Edge Plaza - Building 19,"18/RIVERSIDE/GROVELAND, 22/BUTTONWOODS EXPRESS"
7603,2448872,3,Kennedy Circle,18/RIVERSIDE/GROVELAND
7603,2448885,4,Merrimack Valley Hospital - Main Entrance,18/RIVERSIDE/GROVELAND
7603,2448845,5,Washington Square Transit Center,"13/STATELINE PLAZA/PLAISTOW, 14/LAWRENCE-HAVERHILL VIA AMAZON/WARD HILL, 15/WESTGATE PLAZA VIA HILLDALE, 16/WESTGATE PLAZA VIA WASHINGTON STREET, 17/SALISBURY BEACH VIA AMESBURY, 18/RIVERSIDE/GROVELAND, 1/LAWRENCE-HAVERHILL VIA THE LOOP, 23/BEACH EXPRESS, 51/Haverhill-Amesbury"
7604,2448845,1,Washington Square Transit Center,"13/STATELINE PLAZA/PLAISTOW, 14/LAWRENCE-HAVERHILL VIA AMAZON/WARD HILL, 15/WESTGATE PLAZA VIA HILLDALE, 16/WESTGATE PLAZA VIA WASHINGTON STREET, 17/SALISBURY BEACH VIA AMESBURY, 18/RIVERSIDE/GROVELAND, 1/LAWRENCE-HAVERHILL VIA THE LOOP, 23/BEACH EXPRESS, 51/Haverhill-Amesbury"
7604,2448885,2,Merrimack Valley Hospital - Main Entrance,18/RIVERSIDE/GROVELAND
7604,2448917,3,Kennedy Circle,18/RIVERSIDE/GROVELAND
7604,2448738,4,Rivers Edge Plaza - Building 19,"18/RIVERSIDE/GROVELAND, 22/BUTTONWOODS EXPRESS"
7604,3880688,5,Groveland Housing,18/RIVERSIDE/GROVELAND
7605,2448845,1,Washington Square Transit Center,"13/STATELINE PLAZA/PLAISTOW, 14/LAWRENCE-HAVERHILL VIA AMAZON/WARD HILL, 15/WESTGATE PLAZA VIA HILLDALE, 16/WESTGATE PLAZA VIA WASHINGTON STREET, 17/SALISBURY BEACH VIA AMESBURY, 18/RIVERSIDE/GROVELAND, 1/LAWRENCE-HAVERHILL VIA THE LOOP, 23/BEACH EXPRESS, 51/Haverhill-Amesbury"
7605,2448885,2,Merrimack Valley Hospital - Main Entrance,18/RIVERSIDE/GROVELAND
7605,2448917,3,Kennedy Circle,18/RIVERSIDE/GROVELAND
7605,2448738,4,Rivers Edge Plaza - Building 19,"18/RIVERSIDE/GROVELAND, 22/BUTTONWOODS EXPRESS"
7605,3880688,5,Groveland Housing,18/RIVERSIDE/GROVELAND
7606,2448875,1,North Andover Mall - Market Basket,"21/ANDOVER SHUTTLE, 3/NORTH ANDOVER/WOODRIDGE, 8/NORTH ANDOVER MALL VIA PARKER STREET, 9/MERRIMACK COLLEGE VIA SOUTH UNION STREET/NORTH ANDOVER MALL"
7606,4247397,2,Woodridge Housing,3/NORTH ANDOVER/WOODRIDGE
7606,2448876,3,Chickering Road & Peters Street,3/NORTH ANDOVER/WOODRIDGE
7606,2448884,4,Heritage Green Condominiums,3/NORTH ANDOVER/WOODRIDGE
7606,2448908,5,Main Street & Sutton Street,3/NORTH ANDOVER/WOODRIDGE
7606,2448882,6,McGovern Transportation Center,"10/VILLAGE MALL VIA BROADWAY, 11/LAWRENCE-HAVERHILL-NEWBURYPORT LIMITED, 14/LAWRENCE-HAVERHILL VIA AMAZON/WARD HILL, 1/LAWRENCE-HAVERHILL VIA THE LOOP, 23/BEACH EXPRESS, 24/LAWRENCE-LOWELL, 2/ANDOVER SQUARE VIA SOUTH BROADWAY, 3/NORTH ANDOVER/WOODRIDGE, 4/THE LOOP VIA PROSPECT HILL, 5/MERRIMAC PLAZA/DANA FARBER VIA WATER STREET, 6/HOLY FAMILY HOSPITAL VIA LAWRENCE GENERAL, 7/BEACON STREET/MOUNT VERNON, 8/NORTH ANDOVER MALL VIA PARKER STREET, 9/MERRIMACK COLLEGE VIA SOUTH UNION STREET/NORTH ANDOVER MALL"
7607,2448875,1,North Andover Mall - Market Basket,"21/ANDOVER SHUTTLE, 3/NORTH ANDOVER/WOODRIDGE, 8/NORTH ANDOVER MALL VIA PARKER STREET, 9/MERRIMACK COLLEGE VIA SOUTH UNION STREET/NORTH ANDOVER MALL"
7607,4247397,2,Woodridge Housing,3/NORTH ANDOVER/WOODRIDGE
7607,2448876,3,Chickering Road & Peters Street,3/NORTH ANDOVER/WOODRIDGE
7607,2448884,4,Heritage Green Condominiums,3/NORTH ANDOVER/WOODRIDGE
7607,2448908,5,Main Street & Sutton Street,3/NORTH ANDOVER/WOODRIDGE
7607,2448882,6,McGovern Transportation Center,"10/VILLAGE MALL VIA BROADWAY, 11/LAWRENCE-HAVERHILL-NEWBURYPORT LIMITED, 14/LAWRENCE-HAVERHILL VIA AMAZON/WARD HILL, 1/LAWRENCE-HAVERHILL VIA THE LOOP, 23/BEACH EXPRESS, 24/LAWRENCE-LOWELL, 2/ANDOVER SQUARE VIA SOUTH BROADWAY, 3/NORTH ANDOVER/WOODRIDGE, 4/THE LOOP VIA PROSPECT HILL, 5/MERRIMAC PLAZA/DANA FARBER VIA WATER STREET, 6/HOLY FAMILY HOSPITAL VIA LAWRENCE GENERAL, 7/BEACON STREET/MOUNT VERNON, 8/NORTH ANDOVER MALL VIA PARKER STREET, 9/MERRIMACK COLLEGE VIA SOUTH UNION STREET/NORTH ANDOVER MALL"
7608,2448882,1,McGovern Transportation Center,"10/VILLAGE MALL VIA BROADWAY, 11/LAWRENCE-HAVERHILL-NEWBURYPORT LIMITED, 14/LAWRENCE-HAVERHILL VIA AMAZON/WARD HILL, 1/LAWRENCE-HAVERHILL VIA THE LOOP, 23/BEACH EXPRESS, 24/LAWRENCE-LOWELL, 2/ANDOVER SQUARE VIA SOUTH BROADWAY, 3/NORTH ANDOVER/WOODRIDGE, 4/THE LOOP VIA PROSPECT HILL, 5/MERRIMAC PLAZA/DANA FARBER VIA WATER STREET, 6/HOLY FAMILY HOSPITAL VIA LAWRENCE GENERAL, 7/BEACON STREET/MOUNT VERNON, 8/NORTH ANDOVER MALL VIA PARKER STREET, 9/MERRIMACK COLLEGE VIA SOUTH UNION STREET/NORTH ANDOVER MALL"
7608,2448786,2,Main Street & Sutton Street,3/NORTH ANDOVER/WOODRIDGE
7608,2448881,3,Heritage Green Condominiums,3/NORTH ANDOVER/WOODRIDGE
7608,2448801,4,Chickering Road & Peters Street,3/NORTH ANDOVER/WOODRIDGE
7608,4247397,5,Woodridge Housing,3/NORTH ANDOVER/WOODRIDGE
7608,2448875,6,North Andover Mall - Market Basket,"21/ANDOVER SHUTTLE, 3/NORTH ANDOVER/WOODRIDGE, 8/NORTH ANDOVER MALL VIA PARKER STREET, 9/MERRIMACK COLLEGE VIA SOUTH UNION STREET/NORTH ANDOVER MALL"
7609,2448882,1,McGovern Transportation Center,"10/VILLAGE MALL VIA BROADWAY, 11/LAWRENCE-HAVERHILL-NEWBURYPORT LIMITED, 14/LAWRENCE-HAVERHILL VIA AMAZON/WARD HILL, 1/LAWRENCE-HAVERHILL VIA THE LOOP, 23/BEACH EXPRESS, 24/LAWRENCE-LOWELL, 2/ANDOVER SQUARE VIA SOUTH BROADWAY, 3/NORTH ANDOVER/WOODRIDGE, 4/THE LOOP VIA PROSPECT HILL, 5/MERRIMAC PLAZA/DANA FARBER VIA WATER STREET, 6/HOLY FAMILY HOSPITAL VIA LAWRENCE GENERAL, 7/BEACON STREET/MOUNT VERNON, 8/NORTH ANDOVER MALL VIA PARKER STREET, 9/MERRIMACK COLLEGE VIA SOUTH UNION STREET/NORTH ANDOVER MALL"
7609,2448786,2,Main Street & Sutton Street,3/NORTH ANDOVER/WOODRIDGE
7609,2448881,3,Heritage Green Condominiums,3/NORTH ANDOVER/WOODRIDGE
7609,2448801,4,Chickering Road & Peters Street,3/NORTH ANDOVER/WOODRIDGE
7609,4247397,5,Woodridge Housing,3/NORTH ANDOVER/WOODRIDGE
7609,2448875,6,North Andover Mall - Market Basket,"21/ANDOVER SHUTTLE, 3/NORTH ANDOVER/WOODRIDGE, 8/NORTH ANDOVER MALL VIA PARKER STREET, 9/MERRIMACK COLLEGE VIA SOUTH UNION STREET/NORTH ANDOVER MALL"
7610,2448751,1,Methuen Plaza - Walmart,"1/LAWRENCE-HAVERHILL VIA THE LOOP, 4/THE LOOP VIA PROSPECT HILL"
7610,2448804,2,Target Plaza,"1/LAWRENCE-HAVERHILL VIA THE LOOP, 4/THE LOOP VIA PROSPECT HILL"
7610,4247407,3,Swan & Prospect,4/THE LOOP VIA PROSPECT HILL
7610,4247409,4,Ferry Street & E Haverhill Street,4/THE LOOP VIA PROSPECT HILL
7610,2448882,5,McGovern Transportation Center,"10/VILLAGE MALL VIA BROADWAY, 11/LAWRENCE-HAVERHILL-NEWBURYPORT LIMITED, 14/LAWRENCE-HAVERHILL VIA AMAZON/WARD HILL, 1/LAWRENCE-HAVERHILL VIA THE LOOP, 23/BEACH EXPRESS, 24/LAWRENCE-LOWELL, 2/ANDOVER SQUARE VIA SOUTH BROADWAY, 3/NORTH ANDOVER/WOODRIDGE, 4/THE LOOP VIA PROSPECT HILL, 5/MERRIMAC PLAZA/DANA FARBER VIA WATER STREET, 6/HOLY FAMILY HOSPITAL VIA LAWRENCE GENERAL, 7/BEACON STREET/MOUNT VERNON, 8/NORTH ANDOVER MALL VIA PARKER STREET, 9/MERRIMACK COLLEGE VIA SOUTH UNION STREET/NORTH ANDOVER MALL"
7611,2448751,1,Methuen Plaza - Walmart,"1/LAWRENCE-HAVERHILL VIA THE LOOP, 4/THE LOOP VIA PROSPECT HILL"
7611,2448804,2,Target Plaza,"1/LAWRENCE-HAVERHILL VIA THE LOOP, 4/THE LOOP VIA PROSPECT HILL"
7611,4247407,3,Swan & Prospect,4/THE LOOP VIA PROSPECT HILL
7611,4247409,4,Ferry Street & E Haverhill Street,4/THE LOOP VIA PROSPECT HILL
7611,2448882,5,McGovern Transportation Center,"10/VILLAGE MALL VIA BROADWAY, 11/LAWRENCE-HAVERHILL-NEWBURYPORT LIMITED, 14/LAWRENCE-HAVERHILL VIA AMAZON/WARD HILL, 1/LAWRENCE-HAVERHILL VIA THE LOOP, 23/BEACH EXPRESS, 24/LAWRENCE-LOWELL, 2/ANDOVER SQUARE VIA SOUTH BROADWAY, 3/NORTH ANDOVER/WOODRIDGE, 4/THE LOOP VIA PROSPECT HILL, 5/MERRIMAC PLAZA/DANA FARBER VIA WATER STREET, 6/HOLY FAMILY HOSPITAL VIA LAWRENCE GENERAL, 7/BEACON STREET/MOUNT VERNON, 8/NORTH ANDOVER MALL VIA PARKER STREET, 9/MERRIMACK COLLEGE VIA SOUTH UNION STREET/NORTH ANDOVER MALL"
7612,2448882,1,McGovern Transportation Center,"10/VILLAGE MALL VIA BROADWAY, 11/LAWRENCE-HAVERHILL-NEWBURYPORT LIMITED, 14/LAWRENCE-HAVERHILL VIA AMAZON/WARD HILL, 1/LAWRENCE-HAVERHILL VIA THE LOOP, 23/BEACH EXPRESS, 24/LAWRENCE-LOWELL, 2/ANDOVER SQUARE VIA SOUTH BROADWAY, 3/NORTH ANDOVER/WOODRIDGE, 4/THE LOOP VIA PROSPECT HILL, 5/MERRIMAC PLAZA/DANA FARBER VIA WATER STREET, 6/HOLY FAMILY HOSPITAL VIA LAWRENCE GENERAL, 7/BEACON STREET/MOUNT VERNON, 8/NORTH ANDOVER MALL VIA PARKER STREET, 9/MERRIMACK COLLEGE VIA SOUTH UNION STREET/NORTH ANDOVER MALL"
7612,2586358,2,Ferry Street & E Haverhill Street,4/THE LOOP VIA PROSPECT HILL
7612,4210441,3,Swan and Prospect,4/THE LOOP VIA PROSPECT HILL
7612,2448859,4,The Loop,"23/BEACH EXPRESS, 4/THE LOOP VIA PROSPECT HILL"
7612,2448751,5,Methuen Plaza - Walmart,"1/LAWRENCE-HAVERHILL VIA THE LOOP, 4/THE LOOP VIA PROSPECT HILL"
7613,2448882,1,McGovern Transportation Center,"10/VILLAGE MALL VIA BROADWAY, 11/LAWRENCE-HAVERHILL-NEWBURYPORT LIMITED, 14/LAWRENCE-HAVERHILL VIA AMAZON/WARD HILL, 1/LAWRENCE-HAVERHILL VIA THE LOOP, 23/BEACH EXPRESS, 24/LAWRENCE-LOWELL, 2/ANDOVER SQUARE VIA SOUTH BROADWAY, 3/NORTH ANDOVER/WOODRIDGE, 4/THE LOOP VIA PROSPECT HILL, 5/MERRIMAC PLAZA/DANA FARBER VIA WATER STREET, 6/HOLY FAMILY HOSPITAL VIA LAWRENCE GENERAL, 7/BEACON STREET/MOUNT VERNON, 8/NORTH ANDOVER MALL VIA PARKER STREET, 9/MERRIMACK COLLEGE VIA SOUTH UNION STREET/NORTH ANDOVER MALL"
7613,2586358,2,Ferry Street & E Haverhill Street,4/THE LOOP VIA PROSPECT HILL
7613,4210441,3,Swan and Prospect,4/THE LOOP VIA PROSPECT HILL
7613,2448859,4,The Loop,"23/BEACH EXPRESS, 4/THE LOOP VIA PROSPECT HILL"
7613,2448751,5,Methuen Plaza - Walmart,"1/LAWRENCE-HAVERHILL VIA THE LOOP, 4/THE LOOP VIA PROSPECT HILL"
7614,2448785,1,Merrimack Plaza - Rite-Aid Pharmacy,"24/LAWRENCE-LOWELL, 5/MERRIMAC PLAZA/DANA FARBER VIA WATER STREET"
7614,2628774,2,Branch Street - Dana-Farber Cancer Institute,5/MERRIMAC PLAZA/DANA FARBER VIA WATER STREET
7614,2448734,3,Water Street & Ames Street,5/MERRIMAC PLAZA/DANA FARBER VIA WATER STREET
7614,4212841,4,Margin St & Essex St,5/MERRIMAC PLAZA/DANA FARBER VIA WATER STREET
7614,4247441,5,NECC Common Street HUB,"24/LAWRENCE-LOWELL, 5/MERRIMAC PLAZA/DANA FARBER VIA WATER STREET"
7614,2448882,6,McGovern Transportation Center,"10/VILLAGE MALL VIA BROADWAY, 11/LAWRENCE-HAVERHILL-NEWBURYPORT LIMITED, 14/LAWRENCE-HAVERHILL VIA AMAZON/WARD HILL, 1/LAWRENCE-HAVERHILL VIA THE LOOP, 23/BEACH EXPRESS, 24/LAWRENCE-LOWELL, 2/ANDOVER SQUARE VIA SOUTH BROADWAY, 3/NORTH ANDOVER/WOODRIDGE, 4/THE LOOP VIA PROSPECT HILL, 5/MERRIMAC PLAZA/DANA FARBER VIA WATER STREET, 6/HOLY FAMILY HOSPITAL VIA LAWRENCE GENERAL, 7/BEACON STREET/MOUNT VERNON, 8/NORTH ANDOVER MALL VIA PARKER STREET, 9/MERRIMACK COLLEGE VIA SOUTH UNION STREET/NORTH ANDOVER MALL"
7615,2448785,1,Merrimack Plaza - Rite-Aid Pharmacy,"24/LAWRENCE-LOWELL, 5/MERRIMAC PLAZA/DANA FARBER VIA WATER STREET"
7615,2448734,2,Water Street & Ames Street,5/MERRIMAC PLAZA/DANA FARBER VIA WATER STREET
7615,4212841,3,Margin St & Essex St,5/MERRIMAC PLAZA/DANA FARBER VIA WATER STREET
7615,4247441,4,NECC Common Street HUB,"24/LAWRENCE-LOWELL, 5/MERRIMAC PLAZA/DANA FARBER VIA WATER STREET"
7615,2448882,5,McGovern Transportation Center,"10/VILLAGE MALL VIA BROADWAY, 11/LAWRENCE-HAVERHILL-NEWBURYPORT LIMITED, 14/LAWRENCE-HAVERHILL VIA AMAZON/WARD HILL, 1/LAWRENCE-HAVERHILL VIA THE LOOP, 23/BEACH EXPRESS, 24/LAWRENCE-LOWELL, 2/ANDOVER SQUARE VIA SOUTH BROADWAY, 3/NORTH ANDOVER/WOODRIDGE, 4/THE LOOP VIA PROSPECT HILL, 5/MERRIMAC PLAZA/DANA FARBER VIA WATER STREET, 6/HOLY FAMILY HOSPITAL VIA LAWRENCE GENERAL, 7/BEACON STREET/MOUNT VERNON, 8/NORTH ANDOVER MALL VIA PARKER STREET, 9/MERRIMACK COLLEGE VIA SOUTH UNION STREET/NORTH ANDOVER MALL"
7616,2448882,1,McGovern Transportation Center,"10/VILLAGE MALL VIA BROADWAY, 11/LAWRENCE-HAVERHILL-NEWBURYPORT LIMITED, 14/LAWRENCE-HAVERHILL VIA AMAZON/WARD HILL, 1/LAWRENCE-HAVERHILL VIA THE LOOP, 23/BEACH EXPRESS, 24/LAWRENCE-LOWELL, 2/ANDOVER SQUARE VIA SOUTH BROADWAY, 3/NORTH ANDOVER/WOODRIDGE, 4/THE LOOP VIA PROSPECT HILL, 5/MERRIMAC PLAZA/DANA FARBER VIA WATER STREET, 6/HOLY FAMILY HOSPITAL VIA LAWRENCE GENERAL, 7/BEACON STREET/MOUNT VERNON, 8/NORTH ANDOVER MALL VIA PARKER STREET, 9/MERRIMACK COLLEGE VIA SOUTH UNION STREET/NORTH ANDOVER MALL"
7616,2454434,2,Essex Street HUB,"10/VILLAGE MALL VIA BROADWAY, 26/IRS/RAYTHEON (NUKES & TAXES), 2/ANDOVER SQUARE VIA SOUTH BROADWAY, 5/MERRIMAC PLAZA/DANA FARBER VIA WATER STREET, 7/BEACON STREET/MOUNT VERNON"
7616,4212841,3,Margin St & Essex St,5/MERRIMAC PLAZA/DANA FARBER VIA WATER STREET
7616,2448912,4,Water Street & Ames Street,5/MERRIMAC PLAZA/DANA FARBER VIA WATER STREET
7616,2448785,5,Merrimack Plaza - Rite-Aid Pharmacy,"24/LAWRENCE-LOWELL, 5/MERRIMAC PLAZA/DANA FARBER VIA WATER STREET"
7616,2628774,6,Branch Street - Dana-Farber Cancer Institute,5/MERRIMAC PLAZA/DANA FARBER VIA WATER STREET
7617,2448882,1,McGovern Transportation Center,"10/VILLAGE MALL VIA BROADWAY, 11/LAWRENCE-HAVERHILL-NEWBURYPORT LIMITED, 14/LAWRENCE-HAVERHILL VIA AMAZON/WARD HILL, 1/LAWRENCE-HAVERHILL VIA THE LOOP, 23/BEACH EXPRESS, 24/LAWRENCE-LOWELL, 2/ANDOVER SQUARE VIA SOUTH BROADWAY, 3/NORTH ANDOVER/WOODRIDGE, 4/THE LOOP VIA PROSPECT HILL, 5/MERRIMAC PLAZA/DANA FARBER VIA WATER STREET, 6/HOLY FAMILY HOSPITAL VIA LAWRENCE GENERAL, 7/BEACON STREET/MOUNT VERNON, 8/NORTH ANDOVER MALL VIA PARKER STREET, 9/MERRIMACK COLLEGE VIA SOUTH UNION STREET/NORTH ANDOVER MALL"
7617,2454434,2,Essex Street HUB,"10/VILLAGE MALL VIA BROADWAY, 26/IRS/RAYTHEON (NUKES & TAXES), 2/ANDOVER SQUARE VIA SOUTH BROADWAY, 5/MERRIMAC PLAZA/DANA FARBER VIA WATER STREET, 7/BEACON STREET/MOUNT VERNON"
7617,4212841,3,Margin St & Essex St,5/MERRIMAC PLAZA/DANA FARBER VIA WATER STREET
7617,2448912,4,Water Street & Ames Street,5/MERRIMAC PLAZA/DANA FARBER VIA WATER STREET
7617,2448785,5,Merrimack Plaza - Rite-Aid Pharmacy,"24/LAWRENCE-LOWELL, 5/MERRIMAC PLAZA/DANA FARBER VIA WATER STREET"
7618,2448882,1,McGovern Transportation Center,"10/VILLAGE MALL VIA BROADWAY, 11/LAWRENCE-HAVERHILL-NEWBURYPORT LIMITED, 14/LAWRENCE-HAVERHILL VIA AMAZON/WARD HILL, 1/LAWRENCE-HAVERHILL VIA THE LOOP, 23/BEACH EXPRESS, 24/LAWRENCE-LOWELL, 2/ANDOVER SQUARE VIA SOUTH BROADWAY, 3/NORTH ANDOVER/WOODRIDGE, 4/THE LOOP VIA PROSPECT HILL, 5/MERRIMAC PLAZA/DANA FARBER VIA WATER STREET, 6/HOLY FAMILY HOSPITAL VIA LAWRENCE GENERAL, 7/BEACON STREET/MOUNT VERNON, 8/NORTH ANDOVER MALL VIA PARKER STREET, 9/MERRIMACK COLLEGE VIA SOUTH UNION STREET/NORTH ANDOVER MALL"
7618,2448741,2,Andover Street & Winthrop Street,"27/BEACON STREET SPECIAL, 8/NORTH ANDOVER MALL VIA PARKER STREET"
7618,4230473,3,Plaza 114 /North Parish Road,"8/NORTH ANDOVER MALL VIA PARKER STREET, 9/MERRIMACK COLLEGE VIA SOUTH UNION STREET/NORTH ANDOVER MALL"
7618,2448875,4,North Andover Mall - Market Basket,"21/ANDOVER SHUTTLE, 3/NORTH ANDOVER/WOODRIDGE, 8/NORTH ANDOVER MALL VIA PARKER STREET, 9/MERRIMACK COLLEGE VIA SOUTH UNION STREET/NORTH ANDOVER MALL"
7619,2454463,1,North Andover Mall - AT&T,"21/ANDOVER SHUTTLE, 3/NORTH ANDOVER/WOODRIDGE, 8/NORTH ANDOVER MALL VIA PARKER STREET, 9/MERRIMACK COLLEGE VIA SOUTH UNION STREET/NORTH ANDOVER MALL"
7619,4230476,2,Plaza 114/North Parish Road,"8/NORTH ANDOVER MALL VIA PARKER STREET, 9/MERRIMACK COLLEGE VIA SOUTH UNION STREET/NORTH ANDOVER MALL"
7619,2448924,3,Andover Street & Winthrop Street,"27/BEACON STREET SPECIAL, 8/NORTH ANDOVER MALL VIA PARKER STREET"
7619,2448882,4,McGovern Transportation Center,"10/VILLAGE MALL VIA BROADWAY, 11/LAWRENCE-HAVERHILL-NEWBURYPORT LIMITED, 14/LAWRENCE-HAVERHILL VIA AMAZON/WARD HILL, 1/LAWRENCE-HAVERHILL VIA THE LOOP, 23/BEACH EXPRESS, 24/LAWRENCE-LOWELL, 2/ANDOVER SQUARE VIA SOUTH BROADWAY, 3/NORTH ANDOVER/WOODRIDGE, 4/THE LOOP VIA PROSPECT HILL, 5/MERRIMAC PLAZA/DANA FARBER VIA WATER STREET, 6/HOLY FAMILY HOSPITAL VIA LAWRENCE GENERAL, 7/BEACON STREET/MOUNT VERNON, 8/NORTH ANDOVER MALL VIA PARKER STREET, 9/MERRIMACK COLLEGE VIA SOUTH UNION STREET/NORTH ANDOVER MALL"
7620,2454463,1,North Andover Mall - AT&T,"21/ANDOVER SHUTTLE, 3/NORTH ANDOVER/WOODRIDGE, 8/NORTH ANDOVER MALL VIA PARKER STREET, 9/MERRIMACK COLLEGE VIA SOUTH UNION STREET/NORTH ANDOVER MALL"
7620,4230476,2,Plaza 114/North Parish Road,"8/NORTH ANDOVER MALL VIA PARKER STREET, 9/MERRIMACK COLLEGE VIA SOUTH UNION STREET/NORTH ANDOVER MALL"
7620,2448924,3,Andover Street & Winthrop Street,"27/BEACON STREET SPECIAL, 8/NORTH ANDOVER MALL VIA PARKER STREET"
7620,2448882,4,McGovern Transportation Center,"10/VILLAGE MALL VIA BROADWAY, 11/LAWRENCE-HAVERHILL-NEWBURYPORT LIMITED, 14/LAWRENCE-HAVERHILL VIA AMAZON/WARD HILL, 1/LAWRENCE-HAVERHILL VIA THE LOOP, 23/BEACH EXPRESS, 24/LAWRENCE-LOWELL, 2/ANDOVER SQUARE VIA SOUTH BROADWAY, 3/NORTH ANDOVER/WOODRIDGE, 4/THE LOOP VIA PROSPECT HILL, 5/MERRIMAC PLAZA/DANA FARBER VIA WATER STREET, 6/HOLY FAMILY HOSPITAL VIA LAWRENCE GENERAL, 7/BEACON STREET/MOUNT VERNON, 8/NORTH ANDOVER MALL VIA PARKER STREET, 9/MERRIMACK COLLEGE VIA SOUTH UNION STREET/NORTH ANDOVER MALL"
7621,2448882,1,McGovern Transportation Center,"10/VILLAGE MALL VIA BROADWAY, 11/LAWRENCE-HAVERHILL-NEWBURYPORT LIMITED, 14/LAWRENCE-HAVERHILL VIA AMAZON/WARD HILL, 1/LAWRENCE-HAVERHILL VIA THE LOOP, 23/BEACH EXPRESS, 24/LAWRENCE-LOWELL, 2/ANDOVER SQUARE VIA SOUTH BROADWAY, 3/NORTH ANDOVER/WOODRIDGE, 4/THE LOOP VIA PROSPECT HILL, 5/MERRIMAC PLAZA/DANA FARBER VIA WATER STREET, 6/HOLY FAMILY HOSPITAL VIA LAWRENCE GENERAL, 7/BEACON STREET/MOUNT VERNON, 8/NORTH ANDOVER MALL VIA PARKER STREET, 9/MERRIMACK COLLEGE VIA SOUTH UNION STREET/NORTH ANDOVER MALL"
7621,2448741,2,Andover Street & Winthrop Street,"27/BEACON STREET SPECIAL, 8/NORTH ANDOVER MALL VIA PARKER STREET"
7621,4230473,3,Plaza 114 /North Parish Road,"8/NORTH ANDOVER MALL VIA PARKER STREET, 9/MERRIMACK COLLEGE VIA SOUTH UNION STREET/NORTH ANDOVER MALL"
7621,2448875,4,North Andover Mall - Market Basket,"21/ANDOVER SHUTTLE, 3/NORTH ANDOVER/WOODRIDGE, 8/NORTH ANDOVER MALL VIA PARKER STREET, 9/MERRIMACK COLLEGE VIA SOUTH UNION STREET/NORTH ANDOVER MALL"
7622,4247356,1,Merrimack College,"8/NORTH ANDOVER MALL VIA PARKER STREET, 9/MERRIMACK COLLEGE VIA SOUTH UNION STREET/NORTH ANDOVER MALL"
7622,2448875,2,North Andover Mall - Market Basket,"21/ANDOVER SHUTTLE, 3/NORTH ANDOVER/WOODRIDGE, 8/NORTH ANDOVER MALL VIA PARKER STREET, 9/MERRIMACK COLLEGE VIA SOUTH UNION STREET/NORTH ANDOVER MALL"
7622,2454477,3,Heritage Place,"8/NORTH ANDOVER MALL VIA PARKER STREET, 9/MERRIMACK COLLEGE VIA SOUTH UNION STREET/NORTH ANDOVER MALL"
7622,4247450,4,Union & Andover Street,9/MERRIMACK COLLEGE VIA SOUTH UNION STREET/NORTH ANDOVER MALL
7622,2448882,5,McGovern Transportation Center,"10/VILLAGE MALL VIA BROADWAY, 11/LAWRENCE-HAVERHILL-NEWBURYPORT LIMITED, 14/LAWRENCE-HAVERHILL VIA AMAZON/WARD HILL, 1/LAWRENCE-HAVERHILL VIA THE LOOP, 23/BEACH EXPRESS, 24/LAWRENCE-LOWELL, 2/ANDOVER SQUARE VIA SOUTH BROADWAY, 3/NORTH ANDOVER/WOODRIDGE, 4/THE LOOP VIA PROSPECT HILL, 5/MERRIMAC PLAZA/DANA FARBER VIA WATER STREET, 6/HOLY FAMILY HOSPITAL VIA LAWRENCE GENERAL, 7/BEACON STREET/MOUNT VERNON, 8/NORTH ANDOVER MALL VIA PARKER STREET, 9/MERRIMACK COLLEGE VIA SOUTH UNION STREET/NORTH ANDOVER MALL"
7623,4247356,1,Merrimack College,"8/NORTH ANDOVER MALL VIA PARKER STREET, 9/MERRIMACK COLLEGE VIA SOUTH UNION STREET/NORTH ANDOVER MALL"
7623,2448875,2,North Andover Mall - Market Basket,"21/ANDOVER SHUTTLE, 3/NORTH ANDOVER/WOODRIDGE, 8/NORTH ANDOVER MALL VIA PARKER STREET, 9/MERRIMACK COLLEGE VIA SOUTH UNION STREET/NORTH ANDOVER MALL"
7623,2454477,3,Heritage Place,"8/NORTH ANDOVER MALL VIA PARKER STREET, 9/MERRIMACK COLLEGE VIA SOUTH UNION STREET/NORTH ANDOVER MALL"
7623,4247450,4,Union & Andover Street,9/MERRIMACK COLLEGE VIA SOUTH UNION STREET/NORTH ANDOVER MALL
7623,2448882,5,McGovern Transportation Center,"10/VILLAGE MALL VIA BROADWAY, 11/LAWRENCE-HAVERHILL-NEWBURYPORT LIMITED, 14/LAWRENCE-HAVERHILL VIA AMAZON/WARD HILL, 1/LAWRENCE-HAVERHILL VIA THE LOOP, 23/BEACH EXPRESS, 24/LAWRENCE-LOWELL, 2/ANDOVER SQUARE VIA SOUTH BROADWAY, 3/NORTH ANDOVER/WOODRIDGE, 4/THE LOOP VIA PROSPECT HILL, 5/MERRIMAC PLAZA/DANA FARBER VIA WATER STREET, 6/HOLY FAMILY HOSPITAL VIA LAWRENCE GENERAL, 7/BEACON STREET/MOUNT VERNON, 8/NORTH ANDOVER MALL VIA PARKER STREET, 9/MERRIMACK COLLEGE VIA SOUTH UNION STREET/NORTH ANDOVER MALL"
7624,4247356,1,Merrimack College,"8/NORTH ANDOVER MALL VIA PARKER STREET, 9/MERRIMACK COLLEGE VIA SOUTH UNION STREET/NORTH ANDOVER MALL"
7624,2448875,2,North Andover Mall - Market Basket,"21/ANDOVER SHUTTLE, 3/NORTH ANDOVER/WOODRIDGE, 8/NORTH ANDOVER MALL VIA PARKER STREET, 9/MERRIMACK COLLEGE VIA SOUTH UNION STREET/NORTH ANDOVER MALL"
7624,2454477,3,Heritage Place,"8/NORTH ANDOVER MALL VIA PARKER STREET, 9/MERRIMACK COLLEGE VIA SOUTH UNION STREET/NORTH ANDOVER MALL"
7624,4247450,4,Union & Andover Street,9/MERRIMACK COLLEGE VIA SOUTH UNION STREET/NORTH ANDOVER MALL
7624,2448882,5,McGovern Transportation Center,"10/VILLAGE MALL VIA BROADWAY, 11/LAWRENCE-HAVERHILL-NEWBURYPORT LIMITED, 14/LAWRENCE-HAVERHILL VIA AMAZON/WARD HILL, 1/LAWRENCE-HAVERHILL VIA THE LOOP, 23/BEACH EXPRESS, 24/LAWRENCE-LOWELL, 2/ANDOVER SQUARE VIA SOUTH BROADWAY, 3/NORTH ANDOVER/WOODRIDGE, 4/THE LOOP VIA PROSPECT HILL, 5/MERRIMAC PLAZA/DANA FARBER VIA WATER STREET, 6/HOLY FAMILY HOSPITAL VIA LAWRENCE GENERAL, 7/BEACON STREET/MOUNT VERNON, 8/NORTH ANDOVER MALL VIA PARKER STREET, 9/MERRIMACK COLLEGE VIA SOUTH UNION STREET/NORTH ANDOVER MALL"
7625,2448882,1,McGovern Transportation Center,"10/VILLAGE MALL VIA BROADWAY, 11/LAWRENCE-HAVERHILL-NEWBURYPORT LIMITED, 14/LAWRENCE-HAVERHILL VIA AMAZON/WARD HILL, 1/LAWRENCE-HAVERHILL VIA THE LOOP, 23/BEACH EXPRESS, 24/LAWRENCE-LOWELL, 2/ANDOVER SQUARE VIA SOUTH BROADWAY, 3/NORTH ANDOVER/WOODRIDGE, 4/THE LOOP VIA PROSPECT HILL, 5/MERRIMAC PLAZA/DANA FARBER VIA WATER STREET, 6/HOLY FAMILY HOSPITAL VIA LAWRENCE GENERAL, 7/BEACON STREET/MOUNT VERNON, 8/NORTH ANDOVER MALL VIA PARKER STREET, 9/MERRIMACK COLLEGE VIA SOUTH UNION STREET/NORTH ANDOVER MALL"
7625,4247453,2,Union & Andover Street,9/MERRIMACK COLLEGE VIA SOUTH UNION STREET/NORTH ANDOVER MALL
7625,2454468,3,Heritage Place,"8/NORTH ANDOVER MALL VIA PARKER STREET, 9/MERRIMACK COLLEGE VIA SOUTH UNION STREET/NORTH ANDOVER MALL"
7625,2448875,4,North Andover Mall - Market Basket,"21/ANDOVER SHUTTLE, 3/NORTH ANDOVER/WOODRIDGE, 8/NORTH ANDOVER MALL VIA PARKER STREET, 9/MERRIMACK COLLEGE VIA SOUTH UNION STREET/NORTH ANDOVER MALL"
7625,4247356,5,Merrimack College,"8/NORTH ANDOVER MALL VIA PARKER STREET, 9/MERRIMACK COLLEGE VIA SOUTH UNION STREET/NORTH ANDOVER MALL"
7626,2448882,1,McGovern Transportation Center,"10/VILLAGE MALL VIA BROADWAY, 11/LAWRENCE-HAVERHILL-NEWBURYPORT LIMITED, 14/LAWRENCE-HAVERHILL VIA AMAZON/WARD HILL, 1/LAWRENCE-HAVERHILL VIA THE LOOP, 23/BEACH EXPRESS, 24/LAWRENCE-LOWELL, 2/ANDOVER SQUARE VIA SOUTH BROADWAY, 3/NORTH ANDOVER/WOODRIDGE, 4/THE LOOP VIA PROSPECT HILL, 5/MERRIMAC PLAZA/DANA FARBER VIA WATER STREET, 6/HOLY FAMILY HOSPITAL VIA LAWRENCE GENERAL, 7/BEACON STREET/MOUNT VERNON, 8/NORTH ANDOVER MALL VIA PARKER STREET, 9/MERRIMACK COLLEGE VIA SOUTH UNION STREET/NORTH ANDOVER MALL"
7626,4247453,2,Union & Andover Street,9/MERRIMACK COLLEGE VIA SOUTH UNION STREET/NORTH ANDOVER MALL
7626,2454468,3,Heritage Place,"8/NORTH ANDOVER MALL VIA PARKER STREET, 9/MERRIMACK COLLEGE VIA SOUTH UNION STREET/NORTH ANDOVER MALL"
7626,2448875,4,North Andover Mall - Market Basket,"21/ANDOVER SHUTTLE, 3/NORTH ANDOVER/WOODRIDGE, 8/NORTH ANDOVER MALL VIA PARKER STREET, 9/MERRIMACK COLLEGE VIA SOUTH UNION STREET/NORTH ANDOVER MALL"
7626,4247356,5,Merrimack College,"8/NORTH ANDOVER MALL VIA PARKER STREET, 9/MERRIMACK COLLEGE VIA SOUTH UNION STREET/NORTH ANDOVER MALL"
7627,2448882,1,McGovern Transportation Center,"10/VILLAGE MALL VIA BROADWAY, 11/LAWRENCE-HAVERHILL-NEWBURYPORT LIMITED, 14/LAWRENCE-HAVERHILL VIA AMAZON/WARD HILL, 1/LAWRENCE-HAVERHILL VIA THE LOOP, 23/BEACH EXPRESS, 24/LAWRENCE-LOWELL, 2/ANDOVER SQUARE VIA SOUTH BROADWAY, 3/NORTH ANDOVER/WOODRIDGE, 4/THE LOOP VIA PROSPECT HILL, 5/MERRIMAC PLAZA/DANA FARBER VIA WATER STREET, 6/HOLY FAMILY HOSPITAL VIA LAWRENCE GENERAL, 7/BEACON STREET/MOUNT VERNON, 8/NORTH ANDOVER MALL VIA PARKER STREET, 9/MERRIMACK COLLEGE VIA SOUTH UNION STREET/NORTH ANDOVER MALL"
7627,4247453,2,Union & Andover Street,9/MERRIMACK COLLEGE VIA SOUTH UNION STREET/NORTH ANDOVER MALL
7627,2454468,3,Heritage Place,"8/NORTH ANDOVER MALL VIA PARKER STREET, 9/MERRIMACK COLLEGE VIA SOUTH UNION STREET/NORTH ANDOVER MALL"
7627,2448875,4,North Andover Mall - Market Basket,"21/ANDOVER SHUTTLE, 3/NORTH ANDOVER/WOODRIDGE, 8/NORTH ANDOVER MALL VIA PARKER STREET, 9/MERRIMACK COLLEGE VIA SOUTH UNION STREET/NORTH ANDOVER MALL"
7627,4247356,5,Merrimack College,"8/NORTH ANDOVER MALL VIA PARKER STREET, 9/MERRIMACK COLLEGE VIA SOUTH UNION STREET/NORTH ANDOVER MALL"
7628,2448886,1,Village Plaza - Dollar Tree,10/VILLAGE MALL VIA BROADWAY
7628,2582998,2,Methuen Square,"10/VILLAGE MALL VIA BROADWAY, 99/Methuen-Lawrence-Andover to Boston"
7628,2448765,3,NECC Lawrence Campus,"10/VILLAGE MALL VIA BROADWAY, 1/LAWRENCE-HAVERHILL VIA THE LOOP, 56/NECC Express"
7628,2448882,4,McGovern Transportation Center,"10/VILLAGE MALL VIA BROADWAY, 11/LAWRENCE-HAVERHILL-NEWBURYPORT LIMITED, 14/LAWRENCE-HAVERHILL VIA AMAZON/WARD HILL, 1/LAWRENCE-HAVERHILL VIA THE LOOP, 23/BEACH EXPRESS, 24/LAWRENCE-LOWELL, 2/ANDOVER SQUARE VIA SOUTH BROADWAY, 3/NORTH ANDOVER/WOODRIDGE, 4/THE LOOP VIA PROSPECT HILL, 5/MERRIMAC PLAZA/DANA FARBER VIA WATER STREET, 6/HOLY FAMILY HOSPITAL VIA LAWRENCE GENERAL, 7/BEACON STREET/MOUNT VERNON, 8/NORTH ANDOVER MALL VIA PARKER STREET, 9/MERRIMACK COLLEGE VIA SOUTH UNION STREET/NORTH ANDOVER MALL"
7629,2448886,1,Village Plaza - Dollar Tree,10/VILLAGE MALL VIA BROADWAY
7629,2582998,2,Methuen Square,"10/VILLAGE MALL VIA BROADWAY, 99/Methuen-Lawrence-Andover to Boston"
7629,2448765,3,NECC Lawrence Campus,"10/VILLAGE MALL VIA BROADWAY, 1/LAWRENCE-HAVERHILL VIA THE LOOP, 56/NECC Express"
7629,2448882,4,McGovern Transportation Center,"10/VILLAGE MALL VIA BROADWAY, 11/LAWRENCE-HAVERHILL-NEWBURYPORT LIMITED, 14/LAWRENCE-HAVERHILL VIA AMAZON/WARD HILL, 1/LAWRENCE-HAVERHILL VIA THE LOOP, 23/BEACH EXPRESS, 24/LAWRENCE-LOWELL, 2/ANDOVER SQUARE VIA SOUTH BROADWAY, 3/NORTH ANDOVER/WOODRIDGE, 4/THE LOOP VIA PROSPECT HILL, 5/MERRIMAC PLAZA/DANA FARBER VIA WATER STREET, 6/HOLY FAMILY HOSPITAL VIA LAWRENCE GENERAL, 7/BEACON STREET/MOUNT VERNON, 8/NORTH ANDOVER MALL VIA PARKER STREET, 9/MERRIMACK COLLEGE VIA SOUTH UNION STREET/NORTH ANDOVER MALL"
7630,2448882,1,McGovern Transportation Center,"10/VILLAGE MALL VIA BROADWAY, 11/LAWRENCE-HAVERHILL-NEWBURYPORT LIMITED, 14/LAWRENCE-HAVERHILL VIA AMAZON/WARD HILL, 1/LAWRENCE-HAVERHILL VIA THE LOOP, 23/BEACH EXPRESS, 24/LAWRENCE-LOWELL, 2/ANDOVER SQUARE VIA SOUTH BROADWAY, 3/NORTH ANDOVER/WOODRIDGE, 4/THE LOOP VIA PROSPECT HILL, 5/MERRIMAC PLAZA/DANA FARBER VIA WATER STREET, 6/HOLY FAMILY HOSPITAL VIA LAWRENCE GENERAL, 7/BEACON STREET/MOUNT VERNON, 8/NORTH ANDOVER MALL VIA PARKER STREET, 9/MERRIMACK COLLEGE VIA SOUTH UNION STREET/NORTH ANDOVER MALL"
7630,2452472,2,Hampshire Street & Essex Street,"10/VILLAGE MALL VIA BROADWAY, 1/LAWRENCE-HAVERHILL VIA THE LOOP, 23/BEACH EXPRESS, 24/LAWRENCE-LOWELL, 3/NORTH ANDOVER/WOODRIDGE, 4/THE LOOP VIA PROSPECT HILL, 9/MERRIMACK COLLEGE VIA SOUTH UNION STREET/NORTH ANDOVER MALL"
7630,2448830,3,Methuen Square,10/VILLAGE MALL VIA BROADWAY
7630,2448828,4,Mystic Street,10/VILLAGE MALL VIA BROADWAY
7630,2448886,5,Village Plaza - Dollar Tree,10/VILLAGE MALL VIA BROADWAY
7631,2448882,1,McGovern Transportation Center,"10/VILLAGE MALL VIA BROADWAY, 11/LAWRENCE-HAVERHILL-NEWBURYPORT LIMITED, 14/LAWRENCE-HAVERHILL VIA AMAZON/WARD HILL, 1/LAWRENCE-HAVERHILL VIA THE LOOP, 23/BEACH EXPRESS, 24/LAWRENCE-LOWELL, 2/ANDOVER SQUARE VIA SOUTH BROADWAY, 3/NORTH ANDOVER/WOODRIDGE, 4/THE LOOP VIA PROSPECT HILL, 5/MERRIMAC PLAZA/DANA FARBER VIA WATER STREET, 6/HOLY FAMILY HOSPITAL VIA LAWRENCE GENERAL, 7/BEACON STREET/MOUNT VERNON, 8/NORTH ANDOVER MALL VIA PARKER STREET, 9/MERRIMACK COLLEGE VIA SOUTH UNION STREET/NORTH ANDOVER MALL"
7631,2452472,2,Hampshire Street & Essex Street,"10/VILLAGE MALL VIA BROADWAY, 1/LAWRENCE-HAVERHILL VIA THE LOOP, 23/BEACH EXPRESS, 24/LAWRENCE-LOWELL, 3/NORTH ANDOVER/WOODRIDGE, 4/THE LOOP VIA PROSPECT HILL, 9/MERRIMACK COLLEGE VIA SOUTH UNION STREET/NORTH ANDOVER MALL"
7631,2448830,3,Methuen Square,10/VILLAGE MALL VIA BROADWAY
7631,2448828,4,Mystic Street,10/VILLAGE MALL VIA BROADWAY
7631,2448886,5,Village Plaza - Dollar Tree,10/VILLAGE MALL VIA BROADWAY
7632,2448882,1,McGovern Transportation Center,"10/VILLAGE MALL VIA BROADWAY, 11/LAWRENCE-HAVERHILL-NEWBURYPORT LIMITED, 14/LAWRENCE-HAVERHILL VIA AMAZON/WARD HILL, 1/LAWRENCE-HAVERHILL VIA THE LOOP, 23/BEACH EXPRESS, 24/LAWRENCE-LOWELL, 2/ANDOVER SQUARE VIA SOUTH BROADWAY, 3/NORTH ANDOVER/WOODRIDGE, 4/THE LOOP VIA PROSPECT HILL, 5/MERRIMAC PLAZA/DANA FARBER VIA WATER STREET, 6/HOLY FAMILY HOSPITAL VIA LAWRENCE GENERAL, 7/BEACON STREET/MOUNT VERNON, 8/NORTH ANDOVER MALL VIA PARKER STREET, 9/MERRIMACK COLLEGE VIA SOUTH UNION STREET/NORTH ANDOVER MALL"
7632,4247440,2,Essex and Hampshire Street,24/LAWRENCE-LOWELL
7632,2448785,3,Merrimack Plaza - Rite-Aid Pharmacy,"24/LAWRENCE-LOWELL, 5/MERRIMAC PLAZA/DANA FARBER VIA WATER STREET"
7632,2448880,4,Merrimack Avenue & Draycott Avenue - Lenzis Bakery,24/LAWRENCE-LOWELL
7632,2448883,5,UMass Lowell Inn & Conference Center,24/LAWRENCE-LOWELL
7632,2448866,6,Robert B. Kennedy Transfer Center,24/LAWRENCE-LOWELL
7633,2448866,1,Robert B. Kennedy Transfer Center,24/LAWRENCE-LOWELL
7633,2594327,2,Merrimack Avenue & Intervale Avenue - Lenzis Bakery,24/LAWRENCE-LOWELL
7633,2448785,3,Merrimack Plaza - Rite-Aid Pharmacy,"24/LAWRENCE-LOWELL, 5/MERRIMAC PLAZA/DANA FARBER VIA WATER STREET"
7633,4247441,4,NECC Common Street HUB,"24/LAWRENCE-LOWELL, 5/MERRIMAC PLAZA/DANA FARBER VIA WATER STREET"
7633,2448882,5,McGovern Transportation Center,"10/VILLAGE MALL VIA BROADWAY, 11/LAWRENCE-HAVERHILL-NEWBURYPORT LIMITED, 14/LAWRENCE-HAVERHILL VIA AMAZON/WARD HILL, 1/LAWRENCE-HAVERHILL VIA THE LOOP, 23/BEACH EXPRESS, 24/LAWRENCE-LOWELL, 2/ANDOVER SQUARE VIA SOUTH BROADWAY, 3/NORTH ANDOVER/WOODRIDGE, 4/THE LOOP VIA PROSPECT HILL, 5/MERRIMAC PLAZA/DANA FARBER VIA WATER STREET, 6/HOLY FAMILY HOSPITAL VIA LAWRENCE GENERAL, 7/BEACON STREET/MOUNT VERNON, 8/NORTH ANDOVER MALL VIA PARKER STREET, 9/MERRIMACK COLLEGE VIA SOUTH UNION STREET/NORTH ANDOVER MALL"
7634,2448866,1,Robert B. Kennedy Transfer Center,24/LAWRENCE-LOWELL
7634,2594327,2,Merrimack Avenue & Intervale Avenue - Lenzis Bakery,24/LAWRENCE-LOWELL
7634,2448785,3,Merrimack Plaza - Rite-Aid Pharmacy,"24/LAWRENCE-LOWELL, 5/MERRIMAC PLAZA/DANA FARBER VIA WATER STREET"
7634,4247441,4,NECC Common Street HUB,"24/LAWRENCE-LOWELL, 5/MERRIMAC PLAZA/DANA FARBER VIA WATER STREET"
7634,2448882,5,McGovern Transportation Center,"10/VILLAGE MALL VIA BROADWAY, 11/LAWRENCE-HAVERHILL-NEWBURYPORT LIMITED, 14/LAWRENCE-HAVERHILL VIA AMAZON/WARD HILL, 1/LAWRENCE-HAVERHILL VIA THE LOOP, 23/BEACH EXPRESS, 24/LAWRENCE-LOWELL, 2/ANDOVER SQUARE VIA SOUTH BROADWAY, 3/NORTH ANDOVER/WOODRIDGE, 4/THE LOOP VIA PROSPECT HILL, 5/MERRIMAC PLAZA/DANA FARBER VIA WATER STREET, 6/HOLY FAMILY HOSPITAL VIA LAWRENCE GENERAL, 7/BEACON STREET/MOUNT VERNON, 8/NORTH ANDOVER MALL VIA PARKER STREET, 9/MERRIMACK COLLEGE VIA SOUTH UNION STREET/NORTH ANDOVER MALL"
7635,4213086,1,The Center,12/LAWRENCE CROSSTOWN
7635,2448843,2,Lawrence Street & Park Street,12/LAWRENCE CROSSTOWN
7635,2448808,3,Broadway & Essex Street,12/LAWRENCE CROSSTOWN
7635,2448870,4,Union Street & Essex Street,"12/LAWRENCE CROSSTOWN, 5/MERRIMAC PLAZA/DANA FARBER VIA WATER STREET, 7/BEACON STREET/MOUNT VERNON"
7635,4213086,5,The Center,12/LAWRENCE CROSSTOWN
7636,2448921,1,Internal Revenue Service,26/IRS/RAYTHEON (NUKES & TAXES)
7636,2448850,2,Raytheon Corporation,26/IRS/RAYTHEON (NUKES & TAXES)
7636,2448810,3,S Broadway & Mt Vernon Street,"26/IRS/RAYTHEON (NUKES & TAXES), 2/ANDOVER SQUARE VIA SOUTH BROADWAY, 99/Methuen-Lawrence-Andover to Boston"
7636,2448919,4,Buckley Transportation Center,"10/VILLAGE MALL VIA BROADWAY, 12/LAWRENCE CROSSTOWN, 1/LAWRENCE-HAVERHILL VIA THE LOOP, 23/BEACH EXPRESS, 24/LAWRENCE-LOWELL, 26/IRS/RAYTHEON (NUKES & TAXES), 2/ANDOVER SQUARE VIA SOUTH BROADWAY, 3/NORTH ANDOVER/WOODRIDGE, 4/THE LOOP VIA PROSPECT HILL, 5/MERRIMAC PLAZA/DANA FARBER VIA WATER STREET, 6/HOLY FAMILY HOSPITAL VIA LAWRENCE GENERAL, 7/BEACON STREET/MOUNT VERNON, 8/NORTH ANDOVER MALL VIA PARKER STREET, 9/MERRIMACK COLLEGE VIA SOUTH UNION STREET/NORTH ANDOVER MALL"
7637,2448919,1,Buckley Transportation Center,"10/VILLAGE MALL VIA BROADWAY, 12/LAWRENCE CROSSTOWN, 1/LAWRENCE-HAVERHILL VIA THE LOOP, 23/BEACH EXPRESS, 24/LAWRENCE-LOWELL, 26/IRS/RAYTHEON (NUKES & TAXES), 2/ANDOVER SQUARE VIA SOUTH BROADWAY, 3/NORTH ANDOVER/WOODRIDGE, 4/THE LOOP VIA PROSPECT HILL, 5/MERRIMAC PLAZA/DANA FARBER VIA WATER STREET, 6/HOLY FAMILY HOSPITAL VIA LAWRENCE GENERAL, 7/BEACON STREET/MOUNT VERNON, 8/NORTH ANDOVER MALL VIA PARKER STREET, 9/MERRIMACK COLLEGE VIA SOUTH UNION STREET/NORTH ANDOVER MALL"
7637,2448723,2,S Broadway & Mt Vernon Street,"26/IRS/RAYTHEON (NUKES & TAXES), 2/ANDOVER SQUARE VIA SOUTH BROADWAY, 99/Methuen-Lawrence-Andover to Boston"
7637,2448850,3,Raytheon Corporation,26/IRS/RAYTHEON (NUKES & TAXES)
7637,2448921,4,Internal Revenue Service,26/IRS/RAYTHEON (NUKES & TAXES)
7638,2454469,1,Durso Ave & Winthrop Ave,"27/BEACON STREET SPECIAL, 8/NORTH ANDOVER MALL VIA PARKER STREET, 9/MERRIMACK COLLEGE VIA SOUTH UNION STREET/NORTH ANDOVER MALL"
7638,2448924,2,Andover Street & Winthrop Street,"27/BEACON STREET SPECIAL, 8/NORTH ANDOVER MALL VIA PARKER STREET"
7638,2448827,3,Andover Street & Beacon Street,"27/BEACON STREET SPECIAL, 7/BEACON STREET/MOUNT VERNON"
7638,2581576,4,Mt Vernon Street & Jefferson Street,27/BEACON STREET SPECIAL
7638,2448844,5,Clifton Street & Andover Street,27/BEACON STREET SPECIAL
7639,2448827,1,Andover Street & Beacon Street,"27/BEACON STREET SPECIAL, 7/BEACON STREET/MOUNT VERNON"
7639,2581576,2,Mt Vernon Street & Jefferson Street,27/BEACON STREET SPECIAL
7639,2448844,3,Clifton Street & Andover Street,27/BEACON STREET SPECIAL
7639,2448741,4,Andover Street & Winthrop Street,"27/BEACON STREET SPECIAL, 8/NORTH ANDOVER MALL VIA PARKER STREET"
7639,2454475,5,Durso Ave & Winthrop Ave,"27/BEACON STREET SPECIAL, 8/NORTH ANDOVER MALL VIA PARKER STREET, 9/MERRIMACK COLLEGE VIA SOUTH UNION STREET/NORTH ANDOVER MALL"
7640,2448909,1,AHEPA Apartments,"18/RIVERSIDE/GROVELAND, 22/BUTTONWOODS EXPRESS"
7640,2448738,2,Rivers Edge Plaza - Building 19,"18/RIVERSIDE/GROVELAND, 22/BUTTONWOODS EXPRESS"
7641,2448738,1,Rivers Edge Plaza - Building 19,"18/RIVERSIDE/GROVELAND, 22/BUTTONWOODS EXPRESS"
7641,2448909,2,AHEPA Apartments,"18/RIVERSIDE/GROVELAND, 22/BUTTONWOODS EXPRESS"
7642,2448914,1,Salisbury Beach,"17/SALISBURY BEACH VIA AMESBURY, 20/SALISBURY BEACH, 23/BEACH EXPRESS, 54/Amesbury-Newburyport-Salisbury"
7642,2454699,2,Salisbury Center,"17/SALISBURY BEACH VIA AMESBURY, 20/SALISBURY BEACH, 54/Amesbury-Newburyport-Salisbury"
7642,4212234,3,Elm Street & Lafayette Street,17/SALISBURY BEACH VIA AMESBURY
7642,2448780,4,Nicholas J. Costello Transportation Center,"17/SALISBURY BEACH VIA AMESBURY, 19/AMESBURY/COSTELLO, 23/BEACH EXPRESS, 51/Haverhill-Amesbury, 54/Amesbury-Newburyport-Salisbury"
7642,3673333,5,Route 110 & Main St,"17/SALISBURY BEACH VIA AMESBURY, 51/Haverhill-Amesbury"
7642,2448758,6,Merri Village,"17/SALISBURY BEACH VIA AMESBURY, 51/Haverhill-Amesbury"
7642,2448855,7,NECC Haverhill Campus,"17/SALISBURY BEACH VIA AMESBURY, 51/Haverhill-Amesbury"
7642,2448845,8,Washington Square Transit Center,"13/STATELINE PLAZA/PLAISTOW, 14/LAWRENCE-HAVERHILL VIA AMAZON/WARD HILL, 15/WESTGATE PLAZA VIA HILLDALE, 16/WESTGATE PLAZA VIA WASHINGTON STREET, 17/SALISBURY BEACH VIA AMESBURY, 18/RIVERSIDE/GROVELAND, 1/LAWRENCE-HAVERHILL VIA THE LOOP, 23/BEACH EXPRESS, 51/Haverhill-Amesbury"
7643,2448914,1,Salisbury Beach,"17/SALISBURY BEACH VIA AMESBURY, 20/SALISBURY BEACH, 23/BEACH EXPRESS, 54/Amesbury-Newburyport-Salisbury"
7643,2454699,2,Salisbury Center,"17/SALISBURY BEACH VIA AMESBURY, 20/SALISBURY BEACH, 54/Amesbury-Newburyport-Salisbury"
7643,4212234,3,Elm Street & Lafayette Street,17/SALISBURY BEACH VIA AMESBURY
7643,2448780,4,Nicholas J. Costello Transportation Center,"17/SALISBURY BEACH VIA AMESBURY, 19/AMESBURY/COSTELLO, 23/BEACH EXPRESS, 51/Haverhill-Amesbury, 54/Amesbury-Newburyport-Salisbury"
7643,3673333,5,Route 110 & Main St,"17/SALISBURY BEACH VIA AMESBURY, 51/Haverhill-Amesbury"
7643,2448758,6,Merri Village,"17/SALISBURY BEACH VIA AMESBURY, 51/Haverhill-Amesbury"
7643,2448855,7,NECC Haverhill Campus,"17/SALISBURY BEACH VIA AMESBURY, 51/Haverhill-Amesbury"
7643,2448845,8,Washington Square Transit Center,"13/STATELINE PLAZA/PLAISTOW, 14/LAWRENCE-HAVERHILL VIA AMAZON/WARD HILL, 15/WESTGATE PLAZA VIA HILLDALE, 16/WESTGATE PLAZA VIA WASHINGTON STREET, 17/SALISBURY BEACH VIA AMESBURY, 18/RIVERSIDE/GROVELAND, 1/LAWRENCE-HAVERHILL VIA THE LOOP, 23/BEACH EXPRESS, 51/Haverhill-Amesbury"
7644,2448845,1,Washington Square Transit Center,"13/STATELINE PLAZA/PLAISTOW, 14/LAWRENCE-HAVERHILL VIA AMAZON/WARD HILL, 15/WESTGATE PLAZA VIA HILLDALE, 16/WESTGATE PLAZA VIA WASHINGTON STREET, 17/SALISBURY BEACH VIA AMESBURY, 18/RIVERSIDE/GROVELAND, 1/LAWRENCE-HAVERHILL VIA THE LOOP, 23/BEACH EXPRESS, 51/Haverhill-Amesbury"
7644,2448855,2,NECC Haverhill Campus,"17/SALISBURY BEACH VIA AMESBURY, 51/Haverhill-Amesbury"
7644,2448758,3,Merri Village,"17/SALISBURY BEACH VIA AMESBURY, 51/Haverhill-Amesbury"
7644,3673333,4,Route 110 & Main St,"17/SALISBURY BEACH VIA AMESBURY, 51/Haverhill-Amesbury"
7644,2448780,5,Nicholas J. Costello Transportation Center,"17/SALISBURY BEACH VIA AMESBURY, 19/AMESBURY/COSTELLO, 23/BEACH EXPRESS, 51/Haverhill-Amesbury, 54/Amesbury-Newburyport-Salisbury"
7644,2586331,6,Elm Street & Lafayette Street,"17/SALISBURY BEACH VIA AMESBURY, 54/Amesbury-Newburyport-Salisbury"
7644,2448914,7,Salisbury Beach,"17/SALISBURY BEACH VIA AMESBURY, 20/SALISBURY BEACH, 23/BEACH EXPRESS, 54/Amesbury-Newburyport-Salisbury"
7645,2448845,1,Washington Square Transit Center,"13/STATELINE PLAZA/PLAISTOW, 14/LAWRENCE-HAVERHILL VIA AMAZON/WARD HILL, 15/WESTGATE PLAZA VIA HILLDALE, 16/WESTGATE PLAZA VIA WASHINGTON STREET, 17/SALISBURY BEACH VIA AMESBURY, 18/RIVERSIDE/GROVELAND, 1/LAWRENCE-HAVERHILL VIA THE LOOP, 23/BEACH EXPRESS, 51/Haverhill-Amesbury"
7645,2448855,2,NECC Haverhill Campus,"17/SALISBURY BEACH VIA AMESBURY, 51/Haverhill-Amesbury"
7645,2448758,3,Merri Village,"17/SALISBURY BEACH VIA AMESBURY, 51/Haverhill-Amesbury"
7645,3673333,4,Route 110 & Main St,"17/SALISBURY BEACH VIA AMESBURY, 51/Haverhill-Amesbury"
7645,2448780,5,Nicholas J. Costello Transportation Center,"17/SALISBURY BEACH VIA AMESBURY, 19/AMESBURY/COSTELLO, 23/BEACH EXPRESS, 51/Haverhill-Amesbury, 54/Amesbury-Newburyport-Salisbury"
7645,2586331,6,Elm Street & Lafayette Street,"17/SALISBURY BEACH VIA AMESBURY, 54/Amesbury-Newburyport-Salisbury"
7645,2448914,7,Salisbury Beach,"17/SALISBURY BEACH VIA AMESBURY, 20/SALISBURY BEACH, 23/BEACH EXPRESS, 54/Amesbury-Newburyport-Salisbury"
7646,2448780,1,Nicholas J. Costello Transportation Center,"17/SALISBURY BEACH VIA AMESBURY, 19/AMESBURY/COSTELLO, 23/BEACH EXPRESS, 51/Haverhill-Amesbury, 54/Amesbury-Newburyport-Salisbury"
7646,2586285,2,Carriagetown Marketplace - Stop & Shop,"19/AMESBURY/COSTELLO, 54/Amesbury-Newburyport-Salisbury"
7646,2448833,3,Market Basket Plaza,"19/AMESBURY/COSTELLO, 54/Amesbury-Newburyport-Salisbury, 57/Newburyport Shuttle"
7646,4244552,4,Wallace Bashaw Junior Way at Anna Jacques Hospital,19/AMESBURY/COSTELLO
7646,2448916,5,Heritage House,"19/AMESBURY/COSTELLO, 20/SALISBURY BEACH, 54/Amesbury-Newburyport-Salisbury, 57/Newburyport Shuttle"
7646,2448754,6,Newburyport MBTA Station,"11/LAWRENCE-HAVERHILL-NEWBURYPORT LIMITED, 19/AMESBURY/COSTELLO, 20/SALISBURY BEACH, 53/Newburyport Summer Shuttle, 54/Amesbury-Newburyport-Salisbury"
7647,2448780,1,Nicholas J. Costello Transportation Center,"17/SALISBURY BEACH VIA AMESBURY, 19/AMESBURY/COSTELLO, 23/BEACH EXPRESS, 51/Haverhill-Amesbury, 54/Amesbury-Newburyport-Salisbury"
7647,2586285,2,Carriagetown Marketplace - Stop & Shop,"19/AMESBURY/COSTELLO, 54/Amesbury-Newburyport-Salisbury"
7647,2448833,3,Market Basket Plaza,"19/AMESBURY/COSTELLO, 54/Amesbury-Newburyport-Salisbury, 57/Newburyport Shuttle"
7647,4244552,4,Wallace Bashaw Junior Way at Anna Jacques Hospital,19/AMESBURY/COSTELLO
7647,2448916,5,Heritage House,"19/AMESBURY/COSTELLO, 20/SALISBURY BEACH, 54/Amesbury-Newburyport-Salisbury, 57/Newburyport Shuttle"
7647,2448754,6,Newburyport MBTA Station,"11/LAWRENCE-HAVERHILL-NEWBURYPORT LIMITED, 19/AMESBURY/COSTELLO, 20/SALISBURY BEACH, 53/Newburyport Summer Shuttle, 54/Amesbury-Newburyport-Salisbury"
7648,2448754,1,Newburyport MBTA Station,"11/LAWRENCE-HAVERHILL-NEWBURYPORT LIMITED, 19/AMESBURY/COSTELLO, 20/SALISBURY BEACH, 53/Newburyport Summer Shuttle, 54/Amesbury-Newburyport-Salisbury"
7648,2448862,2,State Street (Library),"19/AMESBURY/COSTELLO, 20/SALISBURY BEACH, 53/Newburyport Summer Shuttle, 54/Amesbury-Newburyport-Salisbury, 57/Newburyport Shuttle"
7648,2448916,3,Heritage House,"19/AMESBURY/COSTELLO, 20/SALISBURY BEACH, 54/Amesbury-Newburyport-Salisbury, 57/Newburyport Shuttle"
7648,4244556,4,Wallace Bashaw Junior Way A/C Anna Jaques Hospital,19/AMESBURY/COSTELLO
7648,2448833,5,Market Basket Plaza,"19/AMESBURY/COSTELLO, 54/Amesbury-Newburyport-Salisbury, 57/Newburyport Shuttle"
7648,2586285,6,Carriagetown Marketplace - Stop & Shop,"19/AMESBURY/COSTELLO, 54/Amesbury-Newburyport-Salisbury"
7648,2448780,7,Nicholas J. Costello Transportation Center,"17/SALISBURY BEACH VIA AMESBURY, 19/AMESBURY/COSTELLO, 23/BEACH EXPRESS, 51/Haverhill-Amesbury, 54/Amesbury-Newburyport-Salisbury"
7649,2448754,1,Newburyport MBTA Station,"11/LAWRENCE-HAVERHILL-NEWBURYPORT LIMITED, 19/AMESBURY/COSTELLO, 20/SALISBURY BEACH, 53/Newburyport Summer Shuttle, 54/Amesbury-Newburyport-Salisbury"
7649,2448862,2,State Street (Library),"19/AMESBURY/COSTELLO, 20/SALISBURY BEACH, 53/Newburyport Summer Shuttle, 54/Amesbury-Newburyport-Salisbury, 57/Newburyport Shuttle"
7649,2448916,3,Heritage House,"19/AMESBURY/COSTELLO, 20/SALISBURY BEACH, 54/Amesbury-Newburyport-Salisbury, 57/Newburyport Shuttle"
7649,4244556,4,Wallace Bashaw Junior Way A/C Anna Jaques Hospital,19/AMESBURY/COSTELLO
7649,2448833,5,Market Basket Plaza,"19/AMESBURY/COSTELLO, 54/Amesbury-Newburyport-Salisbury, 57/Newburyport Shuttle"
7649,2586285,6,Carriagetown Marketplace - Stop & Shop,"19/AMESBURY/COSTELLO, 54/Amesbury-Newburyport-Salisbury"
7649,2448780,7,Nicholas J. Costello Transportation Center,"17/SALISBURY BEACH VIA AMESBURY, 19/AMESBURY/COSTELLO, 23/BEACH EXPRESS, 51/Haverhill-Amesbury, 54/Amesbury-Newburyport-Salisbury"
7650,2448914,1,Salisbury Beach,"17/SALISBURY BEACH VIA AMESBURY, 20/SALISBURY BEACH, 23/BEACH EXPRESS, 54/Amesbury-Newburyport-Salisbury"
7650,2454699,2,Salisbury Center,"17/SALISBURY BEACH VIA AMESBURY, 20/SALISBURY BEACH, 54/Amesbury-Newburyport-Salisbury"
7650,2448862,3,State Street (Library),"19/AMESBURY/COSTELLO, 20/SALISBURY BEACH, 53/Newburyport Summer Shuttle, 54/Amesbury-Newburyport-Salisbury, 57/Newburyport Shuttle"
7650,2448916,4,Heritage House,"19/AMESBURY/COSTELLO, 20/SALISBURY BEACH, 54/Amesbury-Newburyport-Salisbury, 57/Newburyport Shuttle"
7650,2448754,5,Newburyport MBTA Station,"11/LAWRENCE-HAVERHILL-NEWBURYPORT LIMITED, 19/AMESBURY/COSTELLO, 20/SALISBURY BEACH, 53/Newburyport Summer Shuttle, 54/Amesbury-Newburyport-Salisbury"
7651,2448914,1,Salisbury Beach,"17/SALISBURY BEACH VIA AMESBURY, 20/SALISBURY BEACH, 23/BEACH EXPRESS, 54/Amesbury-Newburyport-Salisbury"
7651,2454699,2,Salisbury Center,"17/SALISBURY BEACH VIA AMESBURY, 20/SALISBURY BEACH, 54/Amesbury-Newburyport-Salisbury"
7651,2448862,3,State Street (Library),"19/AMESBURY/COSTELLO, 20/SALISBURY BEACH, 53/Newburyport Summer Shuttle, 54/Amesbury-Newburyport-Salisbury, 57/Newburyport Shuttle"
7651,2448916,4,Heritage House,"19/AMESBURY/COSTELLO, 20/SALISBURY BEACH, 54/Amesbury-Newburyport-Salisbury, 57/Newburyport Shuttle"
7651,2448754,5,Newburyport MBTA Station,"11/LAWRENCE-HAVERHILL-NEWBURYPORT LIMITED, 19/AMESBURY/COSTELLO, 20/SALISBURY BEACH, 53/Newburyport Summer Shuttle, 54/Amesbury-Newburyport-Salisbury"
7652,2448754,1,Newburyport MBTA Station,"11/LAWRENCE-HAVERHILL-NEWBURYPORT LIMITED, 19/AMESBURY/COSTELLO, 20/SALISBURY BEACH, 53/Newburyport Summer Shuttle, 54/Amesbury-Newburyport-Salisbury"
7652,2616260,2,Water Street & Center Street,"19/AMESBURY/COSTELLO, 20/SALISBURY BEACH, 57/Newburyport Shuttle"
7652,4210446,3,Salisbury Center,20/SALISBURY BEACH
7652,2448914,4,Salisbury Beach,"17/SALISBURY BEACH VIA AMESBURY, 20/SALISBURY BEACH, 23/BEACH EXPRESS, 54/Amesbury-Newburyport-Salisbury"
7653,2448754,1,Newburyport MBTA Station,"11/LAWRENCE-HAVERHILL-NEWBURYPORT LIMITED, 19/AMESBURY/COSTELLO, 20/SALISBURY BEACH, 53/Newburyport Summer Shuttle, 54/Amesbury-Newburyport-Salisbury"
7653,2616260,2,Water Street & Center Street,"19/AMESBURY/COSTELLO, 20/SALISBURY BEACH, 57/Newburyport Shuttle"
7653,4210446,3,Salisbury Center,20/SALISBURY BEACH
7653,2448914,4,Salisbury Beach,"17/SALISBURY BEACH VIA AMESBURY, 20/SALISBURY BEACH, 23/BEACH EXPRESS, 54/Amesbury-Newburyport-Salisbury"
7654,2579602,1,Plaistow Walmart,13/STATELINE PLAZA/PLAISTOW
7654,2579603,2,Plaistow Market Basket,13/STATELINE PLAZA/PLAISTOW
7654,2448766,3,Stateline Plaza - TJ Maxx,13/STATELINE PLAZA/PLAISTOW
7654,2448867,4,Monument Square,13/STATELINE PLAZA/PLAISTOW
7654,2448845,5,Washington Square Transit Center,"13/STATELINE PLAZA/PLAISTOW, 14/LAWRENCE-HAVERHILL VIA AMAZON/WARD HILL, 15/WESTGATE PLAZA VIA HILLDALE, 16/WESTGATE PLAZA VIA WASHINGTON STREET, 17/SALISBURY BEACH VIA AMESBURY, 18/RIVERSIDE/GROVELAND, 1/LAWRENCE-HAVERHILL VIA THE LOOP, 23/BEACH EXPRESS, 51/Haverhill-Amesbury"
7655,2448845,1,Washington Square Transit Center,"13/STATELINE PLAZA/PLAISTOW, 14/LAWRENCE-HAVERHILL VIA AMAZON/WARD HILL, 15/WESTGATE PLAZA VIA HILLDALE, 16/WESTGATE PLAZA VIA WASHINGTON STREET, 17/SALISBURY BEACH VIA AMESBURY, 18/RIVERSIDE/GROVELAND, 1/LAWRENCE-HAVERHILL VIA THE LOOP, 23/BEACH EXPRESS, 51/Haverhill-Amesbury"
7655,2448842,2,Monument Square,13/STATELINE PLAZA/PLAISTOW
7655,2448825,3,North Avenue & Gas Company Road,13/STATELINE PLAZA/PLAISTOW
7655,2448766,4,Stateline Plaza - TJ Maxx,13/STATELINE PLAZA/PLAISTOW
7655,2579602,5,Plaistow Walmart,13/STATELINE PLAZA/PLAISTOW
7656,2448845,1,Washington Square Transit Center,"13/STATELINE PLAZA/PLAISTOW, 14/LAWRENCE-HAVERHILL VIA AMAZON/WARD HILL, 15/WESTGATE PLAZA VIA HILLDALE, 16/WESTGATE PLAZA VIA WASHINGTON STREET, 17/SALISBURY BEACH VIA AMESBURY, 18/RIVERSIDE/GROVELAND, 1/LAWRENCE-HAVERHILL VIA THE LOOP, 23/BEACH EXPRESS, 51/Haverhill-Amesbury"
7656,2448809,2,River Street & Lowell Ave,"11/LAWRENCE-HAVERHILL-NEWBURYPORT LIMITED, 1/LAWRENCE-HAVERHILL VIA THE LOOP"
7656,4212790,3,The Loop,"1/LAWRENCE-HAVERHILL VIA THE LOOP, 4/THE LOOP VIA PROSPECT HILL"
7656,2448751,4,Methuen Plaza - Walmart,"1/LAWRENCE-HAVERHILL VIA THE LOOP, 4/THE LOOP VIA PROSPECT HILL"
7656,2448804,5,Target Plaza,"1/LAWRENCE-HAVERHILL VIA THE LOOP, 4/THE LOOP VIA PROSPECT HILL"
7656,4247392,6,Jackson and Swan Street,1/LAWRENCE-HAVERHILL VIA THE LOOP
7656,2448882,7,McGovern Transportation Center,"10/VILLAGE MALL VIA BROADWAY, 11/LAWRENCE-HAVERHILL-NEWBURYPORT LIMITED, 14/LAWRENCE-HAVERHILL VIA AMAZON/WARD HILL, 1/LAWRENCE-HAVERHILL VIA THE LOOP, 23/BEACH EXPRESS, 24/LAWRENCE-LOWELL, 2/ANDOVER SQUARE VIA SOUTH BROADWAY, 3/NORTH ANDOVER/WOODRIDGE, 4/THE LOOP VIA PROSPECT HILL, 5/MERRIMAC PLAZA/DANA FARBER VIA WATER STREET, 6/HOLY FAMILY HOSPITAL VIA LAWRENCE GENERAL, 7/BEACON STREET/MOUNT VERNON, 8/NORTH ANDOVER MALL VIA PARKER STREET, 9/MERRIMACK COLLEGE VIA SOUTH UNION STREET/NORTH ANDOVER MALL"
7657,2448882,1,McGovern Transportation Center,"10/VILLAGE MALL VIA BROADWAY, 11/LAWRENCE-HAVERHILL-NEWBURYPORT LIMITED, 14/LAWRENCE-HAVERHILL VIA AMAZON/WARD HILL, 1/LAWRENCE-HAVERHILL VIA THE LOOP, 23/BEACH EXPRESS, 24/LAWRENCE-LOWELL, 2/ANDOVER SQUARE VIA SOUTH BROADWAY, 3/NORTH ANDOVER/WOODRIDGE, 4/THE LOOP VIA PROSPECT HILL, 5/MERRIMAC PLAZA/DANA FARBER VIA WATER STREET, 6/HOLY FAMILY HOSPITAL VIA LAWRENCE GENERAL, 7/BEACON STREET/MOUNT VERNON, 8/NORTH ANDOVER MALL VIA PARKER STREET, 9/MERRIMACK COLLEGE VIA SOUTH UNION STREET/NORTH ANDOVER MALL"
7657,2448765,2,NECC Lawrence Campus,"10/VILLAGE MALL VIA BROADWAY, 1/LAWRENCE-HAVERHILL VIA THE LOOP, 56/NECC Express"
7657,4247391,3,Jackson and Swan,1/LAWRENCE-HAVERHILL VIA THE LOOP
7657,4212790,4,The Loop,"1/LAWRENCE-HAVERHILL VIA THE LOOP, 4/THE LOOP VIA PROSPECT HILL"
7657,2448751,5,Methuen Plaza - Walmart,"1/LAWRENCE-HAVERHILL VIA THE LOOP, 4/THE LOOP VIA PROSPECT HILL"
7657,2448804,6,Target Plaza,"1/LAWRENCE-HAVERHILL VIA THE LOOP, 4/THE LOOP VIA PROSPECT HILL"
7657,2448782,7,River Street & Lowell Ave,"11/LAWRENCE-HAVERHILL-NEWBURYPORT LIMITED, 1/LAWRENCE-HAVERHILL VIA THE LOOP"
7657,2448845,8,Washington Square Transit Center,"13/STATELINE PLAZA/PLAISTOW, 14/LAWRENCE-HAVERHILL VIA AMAZON/WARD HILL, 15/WESTGATE PLAZA VIA HILLDALE, 16/WESTGATE PLAZA VIA WASHINGTON STREET, 17/SALISBURY BEACH VIA AMESBURY, 18/RIVERSIDE/GROVELAND, 1/LAWRENCE-HAVERHILL VIA THE LOOP, 23/BEACH EXPRESS, 51/Haverhill-Amesbury"
7658,2448866,1,Robert B. Kennedy Transfer Center,24/LAWRENCE-LOWELL
7658,2594327,2,Merrimack Avenue & Intervale Avenue - Lenzis Bakery,24/LAWRENCE-LOWELL
7658,2448785,3,Merrimack Plaza - Rite-Aid Pharmacy,"24/LAWRENCE-LOWELL, 5/MERRIMAC PLAZA/DANA FARBER VIA WATER STREET"
7658,4247441,4,NECC Common Street HUB,"24/LAWRENCE-LOWELL, 5/MERRIMAC PLAZA/DANA FARBER VIA WATER STREET"
7658,2448882,5,McGovern Transportation Center,"10/VILLAGE MALL VIA BROADWAY, 11/LAWRENCE-HAVERHILL-NEWBURYPORT LIMITED, 14/LAWRENCE-HAVERHILL VIA AMAZON/WARD HILL, 1/LAWRENCE-HAVERHILL VIA THE LOOP, 23/BEACH EXPRESS, 24/LAWRENCE-LOWELL, 2/ANDOVER SQUARE VIA SOUTH BROADWAY, 3/NORTH ANDOVER/WOODRIDGE, 4/THE LOOP VIA PROSPECT HILL, 5/MERRIMAC PLAZA/DANA FARBER VIA WATER STREET, 6/HOLY FAMILY HOSPITAL VIA LAWRENCE GENERAL, 7/BEACON STREET/MOUNT VERNON, 8/NORTH ANDOVER MALL VIA PARKER STREET, 9/MERRIMACK COLLEGE VIA SOUTH UNION STREET/NORTH ANDOVER MALL"
7659,2448764,1,McGovern Transportation Center,"23/BEACH EXPRESS, 2/ANDOVER SQUARE VIA SOUTH BROADWAY, 99/Methuen-Lawrence-Andover to Boston"
7659,2448723,2,S Broadway & Mt Vernon Street,"26/IRS/RAYTHEON (NUKES & TAXES), 2/ANDOVER SQUARE VIA SOUTH BROADWAY, 99/Methuen-Lawrence-Andover to Boston"
7659,2448813,3,Shawsheen Square,2/ANDOVER SQUARE VIA SOUTH BROADWAY
7659,2448891,4,Main Street & Central Street,"21/ANDOVER SHUTTLE, 2/ANDOVER SQUARE VIA SOUTH BROADWAY"
7659,2448849,5,Main Street & School Street,2/ANDOVER SQUARE VIA SOUTH BROADWAY
7660,2448849,1,Main Street & School Street,2/ANDOVER SQUARE VIA SOUTH BROADWAY
7660,2448890,2,Andover Square,2/ANDOVER SQUARE VIA SOUTH BROADWAY
7660,2448724,3,Shawsheen Square,"2/ANDOVER SQUARE VIA SOUTH BROADWAY, 99/Methuen-Lawrence-Andover to Boston"
7660,2448810,4,S Broadway & Mt Vernon Street,"26/IRS/RAYTHEON (NUKES & TAXES), 2/ANDOVER SQUARE VIA SOUTH BROADWAY, 99/Methuen-Lawrence-Andover to Boston"
7660,2448882,5,McGovern Transportation Center,"10/VILLAGE MALL VIA BROADWAY, 11/LAWRENCE-HAVERHILL-NEWBURYPORT LIMITED, 14/LAWRENCE-HAVERHILL VIA AMAZON/WARD HILL, 1/LAWRENCE-HAVERHILL VIA THE LOOP, 23/BEACH EXPRESS, 24/LAWRENCE-LOWELL, 2/ANDOVER SQUARE VIA SOUTH BROADWAY, 3/NORTH ANDOVER/WOODRIDGE, 4/THE LOOP VIA PROSPECT HILL, 5/MERRIMAC PLAZA/DANA FARBER VIA WATER STREET, 6/HOLY FAMILY HOSPITAL VIA LAWRENCE GENERAL, 7/BEACON STREET/MOUNT VERNON, 8/NORTH ANDOVER MALL VIA PARKER STREET, 9/MERRIMACK COLLEGE VIA SOUTH UNION STREET/NORTH ANDOVER MALL"
7661,2448882,1,McGovern Transportation Center,"10/VILLAGE MALL VIA BROADWAY, 11/LAWRENCE-HAVERHILL-NEWBURYPORT LIMITED, 14/LAWRENCE-HAVERHILL VIA AMAZON/WARD HILL, 1/LAWRENCE-HAVERHILL VIA THE LOOP, 23/BEACH EXPRESS, 24/LAWRENCE-LOWELL, 2/ANDOVER SQUARE VIA SOUTH BROADWAY, 3/NORTH ANDOVER/WOODRIDGE, 4/THE LOOP VIA PROSPECT HILL, 5/MERRIMAC PLAZA/DANA FARBER VIA WATER STREET, 6/HOLY FAMILY HOSPITAL VIA LAWRENCE GENERAL, 7/BEACON STREET/MOUNT VERNON, 8/NORTH ANDOVER MALL VIA PARKER STREET, 9/MERRIMACK COLLEGE VIA SOUTH UNION STREET/NORTH ANDOVER MALL"
7661,2452472,2,Hampshire Street & Essex Street,"10/VILLAGE MALL VIA BROADWAY, 1/LAWRENCE-HAVERHILL VIA THE LOOP, 23/BEACH EXPRESS, 24/LAWRENCE-LOWELL, 3/NORTH ANDOVER/WOODRIDGE, 4/THE LOOP VIA PROSPECT HILL, 9/MERRIMACK COLLEGE VIA SOUTH UNION STREET/NORTH ANDOVER MALL"
7661,2448830,3,Methuen Square,10/VILLAGE MALL VIA BROADWAY
7661,2448828,4,Mystic Street,10/VILLAGE MALL VIA BROADWAY
7661,2448886,5,Village Plaza - Dollar Tree,10/VILLAGE MALL VIA BROADWAY
7662,2448886,1,Village Plaza - Dollar Tree,10/VILLAGE MALL VIA BROADWAY
7662,2582998,2,Methuen Square,"10/VILLAGE MALL VIA BROADWAY, 99/Methuen-Lawrence-Andover to Boston"
7662,2448765,3,NECC Lawrence Campus,"10/VILLAGE MALL VIA BROADWAY, 1/LAWRENCE-HAVERHILL VIA THE LOOP, 56/NECC Express"
7662,2448882,4,McGovern Transportation Center,"10/VILLAGE MALL VIA BROADWAY, 11/LAWRENCE-HAVERHILL-NEWBURYPORT LIMITED, 14/LAWRENCE-HAVERHILL VIA AMAZON/WARD HILL, 1/LAWRENCE-HAVERHILL VIA THE LOOP, 23/BEACH EXPRESS, 24/LAWRENCE-LOWELL, 2/ANDOVER SQUARE VIA SOUTH BROADWAY, 3/NORTH ANDOVER/WOODRIDGE, 4/THE LOOP VIA PROSPECT HILL, 5/MERRIMAC PLAZA/DANA FARBER VIA WATER STREET, 6/HOLY FAMILY HOSPITAL VIA LAWRENCE GENERAL, 7/BEACON STREET/MOUNT VERNON, 8/NORTH ANDOVER MALL VIA PARKER STREET, 9/MERRIMACK COLLEGE VIA SOUTH UNION STREET/NORTH ANDOVER MALL"
7663,2448914,1,Salisbury Beach,"17/SALISBURY BEACH VIA AMESBURY, 20/SALISBURY BEACH, 23/BEACH EXPRESS, 54/Amesbury-Newburyport-Salisbury"
7663,4212234,2,Elm Street & Lafayette Street,17/SALISBURY BEACH VIA AMESBURY
7663,2448780,3,Nicholas J. Costello Transportation Center,"17/SALISBURY BEACH VIA AMESBURY, 19/AMESBURY/COSTELLO, 23/BEACH EXPRESS, 51/Haverhill-Amesbury, 54/Amesbury-Newburyport-Salisbury"
7663,3673333,4,Route 110 & Main St,"17/SALISBURY BEACH VIA AMESBURY, 51/Haverhill-Amesbury"
7663,2448758,5,Merri Village,"17/SALISBURY BEACH VIA AMESBURY, 51/Haverhill-Amesbury"
7663,2448845,6,Washington Square Transit Center,"13/STATELINE PLAZA/PLAISTOW, 14/LAWRENCE-HAVERHILL VIA AMAZON/WARD HILL, 15/WESTGATE PLAZA VIA HILLDALE, 16/WESTGATE PLAZA VIA WASHINGTON STREET, 17/SALISBURY BEACH VIA AMESBURY, 18/RIVERSIDE/GROVELAND, 1/LAWRENCE-HAVERHILL VIA THE LOOP, 23/BEACH EXPRESS, 51/Haverhill-Amesbury"
7664,2448845,1,Washington Square Transit Center,"13/STATELINE PLAZA/PLAISTOW, 14/LAWRENCE-HAVERHILL VIA AMAZON/WARD HILL, 15/WESTGATE PLAZA VIA HILLDALE, 16/WESTGATE PLAZA VIA WASHINGTON STREET, 17/SALISBURY BEACH VIA AMESBURY, 18/RIVERSIDE/GROVELAND, 1/LAWRENCE-HAVERHILL VIA THE LOOP, 23/BEACH EXPRESS, 51/Haverhill-Amesbury"
7664,2448758,2,Merri Village,"17/SALISBURY BEACH VIA AMESBURY, 51/Haverhill-Amesbury"
7664,3673333,3,Route 110 & Main St,"17/SALISBURY BEACH VIA AMESBURY, 51/Haverhill-Amesbury"
7664,2448780,4,Nicholas J. Costello Transportation Center,"17/SALISBURY BEACH VIA AMESBURY, 19/AMESBURY/COSTELLO, 23/BEACH EXPRESS, 51/Haverhill-Amesbury, 54/Amesbury-Newburyport-Salisbury"
7664,2586331,5,Elm Street & Lafayette Street,"17/SALISBURY BEACH VIA AMESBURY, 54/Amesbury-Newburyport-Salisbury"
7664,2448914,6,Salisbury Beach,"17/SALISBURY BEACH VIA AMESBURY, 20/SALISBURY BEACH, 23/BEACH EXPRESS, 54/Amesbury-Newburyport-Salisbury"
7665,2448751,1,Methuen Plaza - Walmart,"1/LAWRENCE-HAVERHILL VIA THE LOOP, 4/THE LOOP VIA PROSPECT HILL"
7665,2448804,2,Target Plaza,"1/LAWRENCE-HAVERHILL VIA THE LOOP, 4/THE LOOP VIA PROSPECT HILL"
7665,4247407,3,Swan & Prospect,4/THE LOOP VIA PROSPECT HILL
7665,4247409,4,Ferry Street & E Haverhill Street,4/THE LOOP VIA PROSPECT HILL
7665,2448882,5,McGovern Transportation Center,"10/VILLAGE MALL VIA BROADWAY, 11/LAWRENCE-HAVERHILL-NEWBURYPORT LIMITED, 14/LAWRENCE-HAVERHILL VIA AMAZON/WARD HILL, 1/LAWRENCE-HAVERHILL VIA THE LOOP, 23/BEACH EXPRESS, 24/LAWRENCE-LOWELL, 2/ANDOVER SQUARE VIA SOUTH BROADWAY, 3/NORTH ANDOVER/WOODRIDGE, 4/THE LOOP VIA PROSPECT HILL, 5/MERRIMAC PLAZA/DANA FARBER VIA WATER STREET, 6/HOLY FAMILY HOSPITAL VIA LAWRENCE GENERAL, 7/BEACON STREET/MOUNT VERNON, 8/NORTH ANDOVER MALL VIA PARKER STREET, 9/MERRIMACK COLLEGE VIA SOUTH UNION STREET/NORTH ANDOVER MALL"
7666,2448882,1,McGovern Transportation Center,"10/VILLAGE MALL VIA BROADWAY, 11/LAWRENCE-HAVERHILL-NEWBURYPORT LIMITED, 14/LAWRENCE-HAVERHILL VIA AMAZON/WARD HILL, 1/LAWRENCE-HAVERHILL VIA THE LOOP, 23/BEACH EXPRESS, 24/LAWRENCE-LOWELL, 2/ANDOVER SQUARE VIA SOUTH BROADWAY, 3/NORTH ANDOVER/WOODRIDGE, 4/THE LOOP VIA PROSPECT HILL, 5/MERRIMAC PLAZA/DANA FARBER VIA WATER STREET, 6/HOLY FAMILY HOSPITAL VIA LAWRENCE GENERAL, 7/BEACON STREET/MOUNT VERNON, 8/NORTH ANDOVER MALL VIA PARKER STREET, 9/MERRIMACK COLLEGE VIA SOUTH UNION STREET/NORTH ANDOVER MALL"
7666,2586358,2,Ferry Street & E Haverhill Street,4/THE LOOP VIA PROSPECT HILL
7666,4210441,3,Swan and Prospect,4/THE LOOP VIA PROSPECT HILL
7666,2448859,4,The Loop,"23/BEACH EXPRESS, 4/THE LOOP VIA PROSPECT HILL"
7666,2448751,5,Methuen Plaza - Walmart,"1/LAWRENCE-HAVERHILL VIA THE LOOP, 4/THE LOOP VIA PROSPECT HILL"
7667,2594155,1,Pond Street - CVS,"11/LAWRENCE-HAVERHILL-NEWBURYPORT LIMITED, 19/AMESBURY/COSTELLO, 20/SALISBURY BEACH, 54/Amesbury-Newburyport-Salisbury"
7667,2448754,2,Newburyport MBTA Station,"11/LAWRENCE-HAVERHILL-NEWBURYPORT LIMITED, 19/AMESBURY/COSTELLO, 20/SALISBURY BEACH, 53/Newburyport Summer Shuttle, 54/Amesbury-Newburyport-Salisbury"
7667,4247484,3,Storey Ave & Low Street,11/LAWRENCE-HAVERHILL-NEWBURYPORT LIMITED
7667,4247474,4,Maple & Main Street,11/LAWRENCE-HAVERHILL-NEWBURYPORT LIMITED
7667,3880690,5,Rivers Edge Plaza - Entrance,11/LAWRENCE-HAVERHILL-NEWBURYPORT LIMITED
7667,4247548,6,Washington Square,11/LAWRENCE-HAVERHILL-NEWBURYPORT LIMITED
7667,2448809,7,River Street & Lowell Ave,"11/LAWRENCE-HAVERHILL-NEWBURYPORT LIMITED, 1/LAWRENCE-HAVERHILL VIA THE LOOP"
7667,2448882,8,McGovern Transportation Center,"10/VILLAGE MALL VIA BROADWAY, 11/LAWRENCE-HAVERHILL-NEWBURYPORT LIMITED, 14/LAWRENCE-HAVERHILL VIA AMAZON/WARD HILL, 1/LAWRENCE-HAVERHILL VIA THE LOOP, 23/BEACH EXPRESS, 24/LAWRENCE-LOWELL, 2/ANDOVER SQUARE VIA SOUTH BROADWAY, 3/NORTH ANDOVER/WOODRIDGE, 4/THE LOOP VIA PROSPECT HILL, 5/MERRIMAC PLAZA/DANA FARBER VIA WATER STREET, 6/HOLY FAMILY HOSPITAL VIA LAWRENCE GENERAL, 7/BEACON STREET/MOUNT VERNON, 8/NORTH ANDOVER MALL VIA PARKER STREET, 9/MERRIMACK COLLEGE VIA SOUTH UNION STREET/NORTH ANDOVER MALL"
7668,2448882,1,McGovern Transportation Center,"10/VILLAGE MALL VIA BROADWAY, 11/LAWRENCE-HAVERHILL-NEWBURYPORT LIMITED, 14/LAWRENCE-HAVERHILL VIA AMAZON/WARD HILL, 1/LAWRENCE-HAVERHILL VIA THE LOOP, 23/BEACH EXPRESS, 24/LAWRENCE-LOWELL, 2/ANDOVER SQUARE VIA SOUTH BROADWAY, 3/NORTH ANDOVER/WOODRIDGE, 4/THE LOOP VIA PROSPECT HILL, 5/MERRIMAC PLAZA/DANA FARBER VIA WATER STREET, 6/HOLY FAMILY HOSPITAL VIA LAWRENCE GENERAL, 7/BEACON STREET/MOUNT VERNON, 8/NORTH ANDOVER MALL VIA PARKER STREET, 9/MERRIMACK COLLEGE VIA SOUTH UNION STREET/NORTH ANDOVER MALL"
7668,2448782,2,River Street & Lowell Ave,"11/LAWRENCE-HAVERHILL-NEWBURYPORT LIMITED, 1/LAWRENCE-HAVERHILL VIA THE LOOP"
7668,4247472,3,Washington Square,11/LAWRENCE-HAVERHILL-NEWBURYPORT LIMITED
7668,2454593,4,Rivers Edge Plaza - Entrance,"11/LAWRENCE-HAVERHILL-NEWBURYPORT LIMITED, 18/RIVERSIDE/GROVELAND, 22/BUTTONWOODS EXPRESS"
7668,4247480,5,Main & Maple Street,11/LAWRENCE-HAVERHILL-NEWBURYPORT LIMITED
7668,4247483,6,Storey Ave & Low Street,11/LAWRENCE-HAVERHILL-NEWBURYPORT LIMITED
7668,2448754,7,Newburyport MBTA Station,"11/LAWRENCE-HAVERHILL-NEWBURYPORT LIMITED, 19/AMESBURY/COSTELLO, 20/SALISBURY BEACH, 53/Newburyport Summer Shuttle, 54/Amesbury-Newburyport-Salisbury"
7668,2594155,8,Pond Street - CVS,"11/LAWRENCE-HAVERHILL-NEWBURYPORT LIMITED, 19/AMESBURY/COSTELLO, 20/SALISBURY BEACH, 54/Amesbury-Newburyport-Salisbury"
7669,2448882,1,McGovern Transportation Center,"10/VILLAGE MALL VIA BROADWAY, 11/LAWRENCE-HAVERHILL-NEWBURYPORT LIMITED, 14/LAWRENCE-HAVERHILL VIA AMAZON/WARD HILL, 1/LAWRENCE-HAVERHILL VIA THE LOOP, 23/BEACH EXPRESS, 24/LAWRENCE-LOWELL, 2/ANDOVER SQUARE VIA SOUTH BROADWAY, 3/NORTH ANDOVER/WOODRIDGE, 4/THE LOOP VIA PROSPECT HILL, 5/MERRIMAC PLAZA/DANA FARBER VIA WATER STREET, 6/HOLY FAMILY HOSPITAL VIA LAWRENCE GENERAL, 7/BEACON STREET/MOUNT VERNON, 8/NORTH ANDOVER MALL VIA PARKER STREET, 9/MERRIMACK COLLEGE VIA SOUTH UNION STREET/NORTH ANDOVER MALL"
7669,4247440,2,Essex and Hampshire Street,24/LAWRENCE-LOWELL
7669,2448785,3,Merrimack Plaza - Rite-Aid Pharmacy,"24/LAWRENCE-LOWELL, 5/MERRIMAC PLAZA/DANA FARBER VIA WATER STREET"
7669,2448880,4,Merrimack Avenue & Draycott Avenue - Lenzis Bakery,24/LAWRENCE-LOWELL
7669,2448883,5,UMass Lowell Inn & Conference Center,24/LAWRENCE-LOWELL
7669,2448866,6,Robert B. Kennedy Transfer Center,24/LAWRENCE-LOWELL
7670,2448882,1,McGovern Transportation Center,"10/VILLAGE MALL VIA BROADWAY, 11/LAWRENCE-HAVERHILL-NEWBURYPORT LIMITED, 14/LAWRENCE-HAVERHILL VIA AMAZON/WARD HILL, 1/LAWRENCE-HAVERHILL VIA THE LOOP, 23/BEACH EXPRESS, 24/LAWRENCE-LOWELL, 2/ANDOVER SQUARE VIA SOUTH BROADWAY, 3/NORTH ANDOVER/WOODRIDGE, 4/THE LOOP VIA PROSPECT HILL, 5/MERRIMAC PLAZA/DANA FARBER VIA WATER STREET, 6/HOLY FAMILY HOSPITAL VIA LAWRENCE GENERAL, 7/BEACON STREET/MOUNT VERNON, 8/NORTH ANDOVER MALL VIA PARKER STREET, 9/MERRIMACK COLLEGE VIA SOUTH UNION STREET/NORTH ANDOVER MALL"
7670,4247440,2,Essex and Hampshire Street,24/LAWRENCE-LOWELL
7670,2448785,3,Merrimack Plaza - Rite-Aid Pharmacy,"24/LAWRENCE-LOWELL, 5/MERRIMAC PLAZA/DANA FARBER VIA WATER STREET"
7670,2448880,4,Merrimack Avenue & Draycott Avenue - Lenzis Bakery,24/LAWRENCE-LOWELL
7670,2448883,5,UMass Lowell Inn & Conference Center,24/LAWRENCE-LOWELL
7670,2448866,6,Robert B. Kennedy Transfer Center,24/LAWRENCE-LOWELL
